[
    {
        "ID": 1,
        "URL": "http://217.24.53.18/record/current.jpg",
        "Video": false,
        "Lat": 50.258318,
        "Lon": 10.964798,
        "Name": "Coburg Marktplatz",
        "Personenzahl": null,
        "Stand": null,
        "consent": false,
        "origin": "http://217.24.53.18/record/current.jpg"
    },
    {
        "ID": 2,
        "URL": "https://www2.annaberg-buchholz.de/webcam/markt.jpg",
        "Video": false,
        "Lat": 50.580062,
        "Lon": 13.00237,
        "Name": "Annaberg-Buchholz Markt",
        "Personenzahl": null,
        "Stand": null,
        "consent": false,
        "origin": "https://www2.annaberg-buchholz.de/webcam/markt.jpg"
    },  
    {
        "ID": 4,
        "URL": "https://www.erfurt.de/webcam/fischmarkt.jpg",
        "Video": false,
        "Lat": 50.978031,
        "Lon": 11.028691,
        "Name": "Erfurt Fischmarkt",
        "Personenzahl": null,
        "Stand": null,
        "consent": false,
        "origin": "https://www.erfurt.de/webcam/fischmarkt.jpg"
    },
    {
        "ID": 5,
        "URL": "https://www.juwelier-roller.de/media/webcam/chemnitz_markt.jpg",
        "Video": false,
        "Lat": 50.832587,
        "Lon": 12.919738,
        "Name": "Chemnitz Markt",
        "Personenzahl": null,
        "Stand": null,
        "consent": true,
        "origin": "https://www.juwelier-roller.de/webcam.html"
    },
    {
        "ID": 6,
        "URL": "https://www.celle-tourismus.de/webcam/image-640x480.jpg",
        "Video": false,
        "Lat": 52.623973,
        "Lon": 10.080568,
        "Name": "Celle Stechbahn",
        "Personenzahl": null,
        "Stand": null,
        "consent": false,
        "origin": "https://www.celle-tourismus.de/webcam/image-640x480.jpg"
    },
    {
        "ID": 7,
        "URL": "https://webcam.heilbronn.de/current.jpg",
        "Video": false,
        "Lat": 49.142365,
        "Lon": 9.219044,
        "Name": "Heilbronn Marktplatz",
        "Personenzahl": null,
        "Stand": null,
        "consent": false,
        "origin": "https://webcam.heilbronn.de/current.jpg"
    },
    {
        "ID": 8,
        "URL": "https://www.verkehrsinfos.ulm.de/webcam/einstein/current.jpg",
        "Video": false,
        "Lat": 48.401848,
        "Lon": 9.992416,
        "Name": "Ulm Olgastrasse",
        "Personenzahl": null,
        "Stand": null,
        "consent": false,
        "origin": "https://www.verkehrsinfos.ulm.de/webcam/einstein/current.jpg"
    },
    {
        "ID": 9,
        "URL": "https://achern.de/tools/webcam/webcam/achern-rathaus1.jpg",
        "Video": false,
        "Lat": 48.625454,
        "Lon": 8.082615,
        "Name": "Achern Rathaus",
        "Personenzahl": null,
        "Stand": null,
        "consent": false,
        "origin": "https://achern.de/tools/webcam/webcam/achern-rathaus1.jpg"
    },
    {
        "ID": 10,
        "URL": "http://www.marktplatzcam.mybiberach.de/MarktplatzCam000M.jpg",
        "Video": false,
        "Lat": 48.097822,
        "Lon": 9.787595,
        "Name": "Biberach Marktplatz",
        "Personenzahl": null,
        "Stand": null,
        "consent": false,
        "origin": "http://www.marktplatzcam.mybiberach.de/MarktplatzCam000M.jpg"
    },
    {
        "ID": 11,
        "URL": "https://www.radolfzell.de/docs/webcam/radolfzell_640.jpg",
        "Video": false,
        "Lat": 47.745237,
        "Lon": 8.96691,
        "Name": "Radolfzell Marktplatz",
        "Personenzahl": null,
        "Stand": null,
        "consent": false,
        "origin": "https://www.radolfzell.de/docs/webcam/radolfzell_640.jpg"
    },
    {
        "ID": 12,
        "URL": "http://ftp.kaufhaus.ludwigbeck.de/webcam/webcam.jpg",
        "Video": false,
        "Lat": 48.137079,
        "Lon": 11.576006,
        "Name": "München Marienplatz",
        "Personenzahl": null,
        "Stand": null,
        "consent": false,
        "origin": "http://ftp.kaufhaus.ludwigbeck.de/webcam/webcam.jpg"
    },
    {
        "ID": 13,
        "URL": "https://cdn01./uploads/webcam/live.jpg",
        "Video": false,
        "Lat": 50.941278,
        "Lon": 6.958281,
        "Name": "Köln Domplatte",
        "Personenzahl": null,
        "Stand": null,
        "consent": true,
        "origin": "https://www.koeln.de/koeln/die_domstadt/webcams/webcam_dom_782576.html"
    },
    {
        "ID": 14,
        "URL": "http://www.adlerauge1.de/subs/www/current.jpg",
        "Video": false,
        "Lat": 51.513989,
        "Lon": 7.466483,
        "Name": "Dortmund Markt",
        "Personenzahl": null,
        "Stand": null,
        "consent": false,
        "origin": "http://www.adlerauge1.de/subs/www/current.jpg"
    },
    {
        "ID": 15,
        "URL": "https://www.hal-oever.de/webcam/schlastshut.jpg",
        "Video": false,
        "Lat": 53.078206,
        "Lon": 8.799147,
        "Name": "Bremen Schlachten",
        "Personenzahl": null,
        "Stand": null,
        "consent": false,
        "origin": "https://www.hal-oever.de/webcam/schlastshut.jpg"
    },
    {
        "ID": 16,
        "URL": "https://www.call-mail-call.de/webcam/000M.jpg",
        "Video": false,
        "Lat": 52.376701,
        "Lon": 9.728407,
        "Name": "Hannover Laube",
        "Personenzahl": null,
        "Stand": null,
        "consent": false,
        "origin": "https://www.call-mail-call.de/webcam/000M.jpg"
    },
    {
        "ID": 17,
        "URL": "http://80.151.116.140:19812/record/current.jpg",
        "Video": false,
        "Lat": 50.043667,
        "Lon": 10.2330092,
        "Name": "Schweinfurt Spitalstraße",
        "Personenzahl": null,
        "Stand": null,
        "consent": false,
        "origin": "http://80.151.116.140:19812/record/current.jpg"
    },
    {
        "ID": 18,
        "URL": "http://109.90.6.242/record/current.jpg",
        "Video": false,
        "Lat": 52.028423,
        "Lon": 8.901522,
        "Name": "Lemgo Mittelstraße",
        "Personenzahl": null,
        "Stand": null,
        "consent": true,
        "origin": "http://109.90.6.242/record/current.jpg"
    },
    {
        "ID": 19,
        "URL": "https://www.fiwa-forum.de/webcam/fiwa-forum-cam.jpg",
        "Video": false,
        "Lat": 51.630403,
        "Lon": 13.708284,
        "Name": "Finsterwalde Marktplatz",
        "Personenzahl": null,
        "Stand": null,
        "consent": true,
        "origin": "https://www.fiwa-forum.de/app.php/webcam"
    },
    {
        "ID": 20,
        "URL": "https://rathaus-hildesheim.de/webcam/webcam.jpg",
        "Video": false,
        "Lat": 52.1527203,
        "Lon": 9.9515704,
        "Name": "Hildesheim Marktplatz",
        "Personenzahl": null,
        "Stand": null,
        "consent": true,
        "origin": "https://www.hildesheim.de/rathaus/webcams.html"
    },
    {
        "ID": 21,
        "URL": "https://www.siegen.de/fileadmin/cms/bilder/Webcam/WebCam_Siegen.jpg",
        "Video": false,
        "Lat": 50.8335211,
        "Lon": 7.9867985,
        "Name": "Siegen Marktplatz",
        "Personenzahl": null,
        "Stand": null,
        "consent": false,
        "origin": "https://www.siegen.de/fileadmin/cms/bilder/Webcam/WebCam_Siegen.jpg"
    },
    {
        "ID": 22,
        "URL": "https://lamp01.dortmund.de/webcams/friedensplatz/current.jpg",
        "Video": false,
        "Lat": 51.511543,
        "Lon": 7.466345,
        "Name": "Dortmund Friedensplatz",
        "Personenzahl": null,
        "Stand": null,
        "consent": false,
        "origin": "https://lamp01.dortmund.de/webcams/friedensplatz/current.jpg"
    },
    {
        "ID": 23,
        "URL": "https://lamp01.dortmund.de/webcams/altermarkt_hik/current_TIMING.jpg",
        "Video": false,
        "Lat": 51.513989,
        "Lon": 7.466483,
        "Name": "Dortmund Alter Markt",
        "Personenzahl": null,
        "Stand": null,
        "consent": false,
        "origin": "https://lamp01.dortmund.de/webcams/altermarkt_hik/current_TIMING.jpg"
    },
    {
        "ID": 24,
        "URL": "https://service.ka-news.de/tools/webcams/?cam=27",
        "Video": false,
        "Lat": 49.00922,
        "Lon": 8.403912,
        "Name": "Karlsruhe Marktplatz",
        "Personenzahl": null,
        "Stand": null,
        "consent": false,
        "origin": "https://service.ka-news.de/tools/webcams/?cam=27"
    },
    {
        "ID": 25,
        "URL": "https://service.ka-news.de/tools/webcams/?cam=39",
        "Video": false,
        "Lat": 49.0099302,
        "Lon": 8.3920208,
        "Name": "Karlsruhe Europaplatz",
        "Personenzahl": null,
        "Stand": null,
        "consent": false,
        "origin": "https://service.ka-news.de/tools/webcams/?cam=39"
    },
    {
        "ID": 26,
        "URL": "https://www.augsburg.de/fileadmin/user_upload/header/webcam/webcamdachspitz/B_Rathausplatz_Dachspitz_00.jpg",
        "Video": false,
        "Lat": 48.368963,
        "Lon": 10.898227,
        "Name": "Augsburg Rathausplatz",
        "Personenzahl": null,
        "Stand": null,
        "consent": false,
        "origin": "https://www.augsburg.de/fileadmin/user_upload/header/webcam/webcamdachspitz/B_Rathausplatz_Dachspitz_00.jpg"
    },
    {
        "ID": 27,
        "URL": "https://www2.braunschweig.de/webcam/schloss.jpg",
        "Video": false,
        "Lat": 52.263363,
        "Lon": 10.527763,
        "Name": "Braunschweig Schloss",
        "Personenzahl": null,
        "Stand": null,
        "consent": false,
        "origin": "https://www2.braunschweig.de/webcam/schloss.jpg"
    },
    {
        "ID": 28,
        "URL": "http://webcambild-rathaus.aachen.de/webcam_rathaus.jpg",
        "Video": false,
        "Lat": 50.776103,
        "Lon": 6.08378,
        "Name": "Aachen Rathaus",
        "Personenzahl": null,
        "Stand": null,
        "consent": false,
        "origin": "http://webcambild-rathaus.aachen.de/webcam_rathaus.jpg"
    },
    {
        "ID": 29,
        "URL": "http://www.brillen-krille.de/Webcam/foto.jpg",
        "Video": false,
        "Lat": 54.08789,
        "Lon": 12.134464,
        "Name": "Rostock Universitätsplatz",
        "Personenzahl": null,
        "Stand": null,
        "consent": false,
        "origin": "http://www.brillen-krille.de/Webcam/foto.jpg"
    },
    {
        "ID": 30,
        "URL": "https://www.mvv.de/fileadmin/user_upload/Systemdateien/Webcam/current.jpg",
        "Video": false,
        "Lat": 49.4840612,
        "Lon": 8.4733678,
        "Name": "Mannheim Wasserturm",
        "Personenzahl": null,
        "Stand": null,
        "consent": false,
        "origin": "https://www.mvv.de/fileadmin/user_upload/Systemdateien/Webcam/current.jpg"
    },
    {
        "ID": 31,
        "URL": "https://www.theater-schwedt.de/ubs/cam/130/",
        "Video": false,
        "Lat": 53.0617394,
        "Lon": 14.2838004,
        "Name": "Schwedt Lindenallee",
        "Personenzahl": null,
        "Stand": null,
        "consent": true,
        "origin": "https://www.theater-schwedt.de/ubs/page/130/"
    },
    {
        "ID": 32,
        "URL": "https://webcam.stuttgart.de/wcam007/current.jpg",
        "Video": false,
        "Lat": 48.7754909,
        "Lon": 9.1763283,
        "Name": "Stuttgart Marktplatz",
        "Personenzahl": null,
        "Stand": null,
        "consent": false,
        "origin": "https://webcam.stuttgart.de/wcam007/current.jpg"
    },
    {
        "ID": 33,
        "URL": "http://gewerbeverein-adorf.de/Webcam/webcam.jpg",
        "Video": false,
        "Lat": 50.320905,
        "Lon": 12.2520966,
        "Name": "Adorf Marktplatz",
        "Personenzahl": null,
        "Stand": null,
        "consent": false,
        "origin": "http://gewerbeverein-adorf.de/Webcam/webcam.jpg"
    },
    {
        "ID": 34,
        "URL": "https://www.coswig.de/files/coswig/rathaus/webcam/webcam.jpg",
        "Video": false,
        "Lat": 51.1271276,
        "Lon": 13.5782501,
        "Name": "Coswig Hauptstrasse",
        "Personenzahl": null,
        "Stand": null,
        "consent": false,
        "origin": "https://www.coswig.de/files/coswig/rathaus/webcam/webcam.jpg"
    },
    {
        "ID": 35,
        "URL": "https://ewerk.tv/lvb/LVBHBF/lvbhbf.jpg",
        "Video": false,
        "Lat": 51.3447766,
        "Lon": 12.379377,
        "Name": "Leipzig Hauptbahnhof",
        "Personenzahl": null,
        "Stand": null,
        "consent": false,
        "origin": "https://ewerk.tv/lvb/LVBHBF/lvbhbf.jpg"
    },
    {
        "ID": 35,
        "URL": "http://www1.mittweida.de/live/current.jpg",
        "Video": false,
        "Lat": 50.9853543,
        "Lon": 12.9791249,
        "Name": "Mittweida Marktplatz",
        "Personenzahl": null,
        "Stand": null,
        "consent": false,
        "origin": "http://www1.mittweida.de/live/current.jpg"
    },
    {
        "ID": 36,
        "URL": "http://webcam.oelsnitz.de/jpg/image.jpg",
        "Video": false,
        "Lat": 50.4156035,
        "Lon": 12.1696213,
        "Name": "Oelsnitz Marktplatz",
        "Personenzahl": null,
        "Stand": null,
        "consent": false,
        "origin": "http://webcam.oelsnitz.de/jpg/image.jpg"
    },
    {
        "ID": 37,
        "URL": "https://www.ku-weit.eu/zittau/Gallery/cam_1.jpg",
        "Video": false,
        "Lat": 50.8962152,
        "Lon": 14.8080447,
        "Name": "Zittau Salzhaus",
        "Personenzahl": null,
        "Stand": null,
        "consent": false,
        "origin": "https://www.ku-weit.eu/zittau/Gallery/cam_1.jpg"
    },
    {
        "ID": 38,
        "URL": "https://www.altenburg.eu//WebCam1/axis-cgi/jpg/image.cgi?resolution=640x480",
        "Video": false,
        "Lat": 50.984929,
        "Lon": 12.4310653,
        "Name": "Altenburg Markt",
        "Personenzahl": null,
        "Stand": null,
        "consent": false,
        "origin": "https://www.altenburg.eu//WebCam1/axis-cgi/jpg/image.cgi?resolution=640x480"
    },
    {
        "ID": 39,
        "URL": "http://wovi95.ddns-instar.com:81/snapshot.jpg?user=gast&pwd=gast",
        "Video": false,
        "Lat": 50.4474983,
        "Lon": 11.6380773,
        "Name": "Bad Lobenstein Markt",
        "Personenzahl": null,
        "Stand": null,
        "consent": false,
        "origin": "http://wovi95.ddns-instar.com:81/snapshot.jpg?user=gast&pwd=gast"
    },
    {
        "ID": 40,
        "URL": "https://www.erfurt.de/webcam/domplatz.jpg",
        "Video": false,
        "Lat": 50.9772478,
        "Lon": 11.0218204,
        "Name": "Erfurt Domplatz",
        "Personenzahl": null,
        "Stand": null,
        "consent": false,
        "origin": "https://www.erfurt.de/webcam/domplatz.jpg"
    },
    {
        "ID": 41,
        "URL": "http://www.thueringer-webcams.de/kunden/mdr/weimar/livebild-pal.jpg",
        "Video": false,
        "Lat": 50.9798182,
        "Lon": 11.3233716,
        "Name": "Weimar Theaterplatz",
        "Personenzahl": null,
        "Stand": null,
        "consent": false,
        "origin": "http://www.thueringer-webcams.de/kunden/mdr/weimar/livebild-pal.jpg"
    },
    {
        "ID": 42,
        "URL": "http://www.aschersleben.de/webcams/Rathaus.jpeg",
        "Video": false,
        "Lat": 48.6939552,
        "Lon": 9.1178365,
        "Name": "Aschersleben Markt",
        "Personenzahl": null,
        "Stand": null,
        "consent": false,
        "origin": "http://www.aschersleben.de/webcams/Rathaus.jpeg"
    },
    {
        "ID": 43,
        "URL": "https://www.gardelegen.de/webcam/webcam.jpg",
        "Video": false,
        "Lat": 52.446933,
        "Lon": 11.4835116,
        "Name": "Gardelegen Markt",
        "Personenzahl": null,
        "Stand": null,
        "consent": false,
        "origin": "https://www.gardelegen.de/webcam/webcam.jpg"
    },
    {
        "ID": 44,
        "URL": "http://swhcam2.evh.de/vhughsize.jpg",
        "Video": false,
        "Lat": 51.4868011,
        "Lon": 11.9384423,
        "Name": "Halle (Saale) Markt",
        "Personenzahl": null,
        "Stand": null,
        "consent": false,
        "origin": "http://swhcam2.evh.de/vhughsize.jpg"
    },
    {
        "ID": 45,
        "URL": "https://webcam.lutherstadt-eisleben.de/markt.jpg",
        "Video": false,
        "Lat": 51.5282306,
        "Lon": 11.5452827,
        "Name": "Lutherstadt Eisleben Markt",
        "Personenzahl": null,
        "Stand": null,
        "consent": false,
        "origin": "https://webcam.lutherstadt-eisleben.de/markt.jpg"
    },
    {
        "ID": 46,
        "URL": "http://webcam.naumburg.de/camimage.jpg",
        "Video": false,
        "Lat": 51.152475,
        "Lon": 11.8073854,
        "Name": "Naumburg (Saale) Markt",
        "Personenzahl": null,
        "Stand": null,
        "consent": false,
        "origin": "http://webcam.naumburg.de/camimage.jpg"
    },
    {
        "ID": 47,
        "URL": "https://www.hotelzumbaer.de/cam/image.jpg",
        "Video": false,
        "Lat": 51.789,
        "Lon": 11.1392834,
        "Name": "Quedlingburg Markt",
        "Personenzahl": null,
        "Stand": null,
        "consent": false,
        "origin": "https://www.hotelzumbaer.de/cam/image.jpg"
    },
    {
        "ID": 48,
        "URL": "https://www.exempel.de/images/webcam/snapshot_current.jpg",
        "Video": false,
        "Lat": 52.5403281,
        "Lon": 11.9694902,
        "Name": "Tangermünde Markt",
        "Personenzahl": null,
        "Stand": null,
        "consent": false,
        "origin": "https://www.exempel.de/images/webcam/snapshot_current.jpg"
    },
    {
        "ID": 49,
        "URL": "https://www.ostseebad-ahrenshoop.de/webcam/ahrenshoop-strand.jpg",
        "Video": false,
        "Lat": 54.3785813,
        "Lon": 12.4102697,
        "Name": "Ahrenshoop Strand",
        "Personenzahl": null,
        "Stand": null,
        "consent": false,
        "origin": "https://www.ostseebad-ahrenshoop.de/webcam/ahrenshoop-strand.jpg"
    },
    {
        "ID": 50,
        "URL": "http://www.nwm-net.de/markt/aktuellesbild.jpg",
        "Video": false,
        "Lat": 53.8646453,
        "Lon": 11.1818843,
        "Name": "Grevesmühlen Markt",
        "Personenzahl": null,
        "Stand": null,
        "consent": false,
        "origin": "http://www.nwm-net.de/markt/aktuellesbild.jpg"
    },
    {
        "ID": 51,
        "URL": "https://media.webdatendienst.de/webcam1_a.jpg",
        "Video": false,
        "Lat": 53.9570837,
        "Lon": 14.1651142,
        "Name": "Heringsdorf",
        "Personenzahl": null,
        "Stand": null,
        "consent": false,
        "origin": "https://media.webdatendienst.de/webcam1_a.jpg"
    },
    {
        "ID": 53,
        "URL": "http://webcam.aichach.de/webaic.jpg",
        "Video": false,
        "Lat": 48.4591603,
        "Lon": 11.1289321,
        "Name": "Aichach Marktplatz",
        "Personenzahl": null,
        "Stand": null,
        "consent": false,
        "origin": "http://webcam.aichach.de/webaic.jpg"
    },
    {
        "ID": 54,
        "URL": "https://mzcam.kunden-mediamachine.de/markt/bild.jpg",
        "Video": false,
        "Lat": 49.9986667,
        "Lon": 8.2721841,
        "Name": "Mainz Dom",
        "Personenzahl": null,
        "Stand": null,
        "consent": true,
        "origin": "https://mainz.de/tourismus/stadtportraet/webcams.php"
    },
    {
        "ID": 55,
        "URL": "http://www2.neustadt.eu/download/webcam/current.jpg",
        "Video": false,
        "Lat": 49.3533866,
        "Lon": 8.1338495,
        "Name": "Neustadt Weinstraße Marktplatz",
        "Personenzahl": null,
        "Stand": null,
        "consent": false,
        "origin": "http://www2.neustadt.eu/download/webcam/current.jpg"
    },
    {
        "ID": 56,
        "URL": "https://falken-webcam.worms.de/webcam/current.jpg",
        "Video": false,
        "Lat": 49.6302144,
        "Lon": 8.3591628,
        "Name": "Worms Marktplatz",
        "Personenzahl": null,
        "Stand": null,
        "consent": false,
        "origin": "https://falken-webcam.worms.de/webcam/current.jpg"
    },
    {
        "ID": 57,
        "URL": "https://www.bensheim.org/Webcams/images/webcams/current2.jpg",
        "Video": false,
        "Lat": 49.6781939,
        "Lon": 8.6216948,
        "Name": "Bensheim Fußgängerzone",
        "Personenzahl": null,
        "Stand": null,
        "consent": false,
        "origin": "https://www.bensheim.org/Webcams/images/webcams/current2.jpg"
    },
    {
        "ID": 58,
        "URL": "https://www.bensheim.org/Webcams/images/webcams/current0.jpg",
        "Video": false,
        "Lat": 49.680983,
        "Lon": 8.6207077,
        "Name": "Bensheim Marktplatz",
        "Personenzahl": null,
        "Stand": null,
        "consent": false,
        "origin": "https://www.bensheim.org/Webcams/images/webcams/current0.jpg"
    },
    {
        "ID": 59,
        "URL": "http://www.safetec-cam.biz/images/webcam/standard/kaiserstrasse_friedberg.jpg",
        "Video": false,
        "Lat": 50.3347517,
        "Lon": 8.750523,
        "Name": "Friedberg Kaiserstrasse",
        "Personenzahl": null,
        "Stand": null,
        "consent": false,
        "origin": "http://www.safetec-cam.biz/images/webcam/standard/kaiserstrasse_friedberg.jpg"
    },
    {
        "ID": 60,
        "URL": "http://www.webcam-rimbach.de/images/c1image_big.jpg",
        "Video": false,
        "Lat": 49.623281,
        "Lon": 8.7570742,
        "Name": "Rimbach Marktplatz",
        "Personenzahl": null,
        "Stand": null,
        "consent": false,
        "origin": "http://www.webcam-rimbach.de/images/c1image_big.jpg"
    },
    {
        "ID": 61,
        "URL": "https://www.hal-oever.de/webcam/schlastshut.jpg",
        "Video": false,
        "Lat": 53.0749188,
        "Lon": 8.8016672,
        "Name": "Bremen Werserpromenande",
        "Personenzahl": null,
        "Stand": null,
        "consent": false,
        "origin": "https://www.hal-oever.de/webcam/schlastshut.jpg"
    },
    {
        "ID": 62,
        "URL": "http://fischmarkt.no-ip.biz/record/current.jpg",
        "Video": false,
        "Lat": 53.5440922,
        "Lon": 9.9187187,
        "Name": "Hamburg Fischmarkt",
        "Personenzahl": null,
        "Stand": null,
        "consent": false,
        "origin": "http://fischmarkt.no-ip.biz/record/current.jpg"
    },
    {
        "ID": 63,
        "URL": "https://www.vvo-online.de/img/webcamimages/marienbruecke-102.jpg",
        "Video": false,
        "Lat": 51.0615957,
        "Lon": 13.7320668,
        "Name": "Dresden Marienbrücke",
        "Personenzahl": null,
        "Stand": null,
        "consent": false,
        "origin": "https://www.vvo-online.de/img/webcamimages/marienbruecke-102.jpg"
    },
    {
        "ID": 64,
        "URL": "https://www.vvo-online.de/img/webcamimages/koenigsbruecker_strasse_richtung_sued-111.jpg",
        "Video": false,
        "Lat": 51.0700056,
        "Lon": 13.74682,
        "Name": "Dresden Königsbrücker Str.",
        "Personenzahl": null,
        "Stand": null,
        "consent": false,
        "origin": "https://www.vvo-online.de/img/webcamimages/koenigsbruecker_strasse_richtung_sued-111.jpg"
    },
    {
        "ID": 65,
        "URL": "https://www.vvo-online.de/img/webcamimages/albertbruecke-135.jpg",
        "Video": false,
        "Lat": 51.0571946,
        "Lon": 13.7523692,
        "Name": "Dresden Albertbrücke",
        "Personenzahl": null,
        "Stand": null,
        "consent": false,
        "origin": "https://www.vvo-online.de/img/webcamimages/albertbruecke-135.jpg"
    },
    {
        "ID": 66,
        "URL": "https://www.vvo-online.de/img/webcamimages/bergstrasse-149.jpg",
        "Video": false,
        "Lat": 51.0302823,
        "Lon": 13.7284321,
        "Name": "Dresden Bergstraße",
        "Personenzahl": null,
        "Stand": null,
        "consent": false,
        "origin": "https://www.vvo-online.de/img/webcamimages/bergstrasse-149.jpg"
    },
    {
        "ID": 68,
        "URL": "https://www.oederan.de/webcam2017/video.jpg",
        "Video": false,
        "Lat": 50.8617937,
        "Lon": 13.1645769,
        "Name": "Oederan Markt",
        "Personenzahl": null,
        "Stand": null,
        "consent": false,
        "origin": "https://www.oederan.de/webcam2017/video.jpg"
    },
    {
        "ID": 69,
        "URL": "http://webcam.wilhelma.de/webcam02/webcam02.jpg",
        "Video": false,
        "Lat": 48.8041551,
        "Lon": 9.2058097,
        "Name": "Stuttgart Wilhelma",
        "Personenzahl": null,
        "Stand": null,
        "consent": false,
        "origin": "http://webcam.wilhelma.de/webcam02/webcam02.jpg"
    },
    {
        "ID": 70,
        "URL": "https://www.wobau-badmuskau.de/wobaucam1/cambilder/marktplatz_bad_muskau.jpg",
        "Video": false,
        "Lat": 51.546968,
        "Lon": 14.7184007,
        "Name": "Bad Muskau",
        "Personenzahl": null,
        "Stand": null,
        "consent": false,
        "origin": "https://www.wobau-badmuskau.de/wobaucam1/cambilder/marktplatz_bad_muskau.jpg"
    },
    {
        "ID": 71,
        "URL": "http://www.bautzen-webcam.de/upload/MobAG5.jpg",
        "Video": false,
        "Lat": 51.1798389,
        "Lon": 14.4233251,
        "Name": "Bautzen Kornmarkt",
        "Personenzahl": null,
        "Stand": null,
        "consent": false,
        "origin": "http://www.bautzen-webcam.de/upload/MobAG5.jpg"
    },
    {
        "ID": 72,
        "URL": "https://kamera.stausee-rabenstein.de/cam/image.jpg",
        "Video": false,
        "Lat": 50.8390949,
        "Lon": 12.8112592,
        "Name": "Stausee Rabenstein",
        "Personenzahl": null,
        "Stand": null,
        "consent": false,
        "origin": "https://kamera.stausee-rabenstein.de/cam/image.jpg"
    },
    {
        "ID": 73,
        "URL": "https://style-dach.de/webcam_projekte/Webcam_Doebeln_Obermarkt/webcamobermarkt.jpg",
        "Video": false,
        "Lat": 51.1219072,
        "Lon": 13.1202998,
        "Name": "Döbeln Markt",
        "Personenzahl": null,
        "Stand": null,
        "consent": false,
        "origin": "https://style-dach.de/webcam_projekte/Webcam_Doebeln_Obermarkt/webcamobermarkt.jpg"
    },
    {
        "ID": 74,
        "URL": "https://www.goerlitz.de/webcamsab/altstadtbruecke.jpg",
        "Video": false,
        "Lat": 51.1576599,
        "Lon": 14.9919863,
        "Name": "Görlitz Altstadtbrücke",
        "Personenzahl": null,
        "Stand": null,
        "consent": false,
        "origin": "https://www.goerlitz.de/webcamsab/altstadtbruecke.jpg"
    },
    {
        "ID": 75,
        "URL": "https://www.hainichen.de/webcam/webcam-rh.jpg",
        "Video": false,
        "Lat": 50.9727078,
        "Lon": 13.120607,
        "Name": "Hainichen Markt",
        "Personenzahl": null,
        "Stand": null,
        "consent": false,
        "origin": "https://www.hainichen.de/webcam/webcam-rh.jpg"
    },
    {
        "ID": 76,
        "URL": "https://www.plauen.de/cambilder/img03.jpg",
        "Video": false,
        "Lat": 50.4943576,
        "Lon": 12.1335227,
        "Name": "Plauen Altes Rathaus",
        "Personenzahl": null,
        "Stand": null,
        "consent": false,
        "origin": "https://www.plauen.de/cambilder/img03.jpg"
    },
    {
        "ID": 77,
        "URL": "https://webcam-karlshagen.usedom-medien.de/webcam1.jpg",
        "Video": false,
        "Lat": 54.120889,
        "Lon": 13.8421253,
        "Name": "Karlshagen Ostseebad",
        "Personenzahl": null,
        "Stand": null,
        "consent": false,
        "origin": "https://webcam-karlshagen.usedom-medien.de/webcam1.jpg"
    },
    {
        "ID": 78,
        "URL": "https://webcam-karlshagen.usedom-medien.de/webcam2.jpg",
        "Video": false,
        "Lat": 54.1213979,
        "Lon": 13.8388612,
        "Name": "Karlshagen Strandvorplatz",
        "Personenzahl": null,
        "Stand": null,
        "consent": false,
        "origin": "https://webcam-karlshagen.usedom-medien.de/webcam2.jpg"
    },
    {
        "ID": 79,
        "URL": "https://www.wetter-trassenheide.de/template/trassenheide/webcamstrand/webcam_strand/trassenheide_karlshagen.jpg",
        "Video": false,
        "Lat": 54.0954499,
        "Lon": 13.8809276,
        "Name": "Trassenheide Strand Richtung Karlshagen",
        "Personenzahl": null,
        "Stand": null,
        "consent": true,
        "origin": "https://www.wetter-trassenheide.de/template/trassenheide/webcamstrand/webcam_strand/index.php?path=webcam_strand"
    },
    {
        "ID": 80,
        "URL": "https://www.wetter-trassenheide.de/template/trassenheide/webcamstrand/webcam_strand/trassenheide_zinnowitz.jpg",
        "Video": false,
        "Lat": 54.0954499,
        "Lon": 13.8792296,
        "Name": "Trassenheide Strand Richtung Zinnowitz",
        "Personenzahl": null,
        "Stand": null,
        "consent": true,
        "origin": "https://www.wetter-trassenheide.de/template/trassenheide/webcamstrand/webcam_strand/index2.php?path=webcam_strand"
    },
    {
        "ID": 81,
        "URL": "https://www.wetter-trassenheide.de/template/trassenheide/webcamstrand/webcamStrandvorplatz/trassenheide2.jpg",
        "Video": false,
        "Lat": 54.0959851,
        "Lon": 13.877473,
        "Name": "Trassenheide Strandvorplatz",
        "Personenzahl": null,
        "Stand": null,
        "consent": true,
        "origin": "https://www.wetter-trassenheide.de/template/trassenheide/webcamstrand/webcamStrandvorplatz/index.php?path=webcamStrandvorplatz"
    },
    {
        "ID": 82,
        "URL": "https://www.wetter-trassenheide.de/template/trassenheide/webcamstrand/webcam_promenade/trassenheide_strandpromenade.jpg",
        "Video": false,
        "Lat": 54.0972688,
        "Lon": 13.8754649,
        "Name": "Trassenheide Abenteuerspielplatz",
        "Personenzahl": null,
        "Stand": null,
        "consent": true,
        "origin": "https://www.wetter-trassenheide.de/template/trassenheide/webcamstrand/webcam_promenade/index.php?path=webcam_promenade"
    },
    {
        "ID": 83,
        "URL": "https://strandhotel-seerose.de/webcam/webcam/m1.jpg",
        "Video": false,
        "Lat": 54.0415337,
        "Lon": 14.0276174,
        "Name": "Kölpinsee Strandhotel Seerose",
        "Personenzahl": null,
        "Stand": null,
        "consent": false,
        "origin": "https://strandhotel-seerose.de/webcam/webcam/m1.jpg"
    },
    {
        "ID": 84,
        "URL": "https://media.webdatendienst.de/webcam1_a.jpg",
        "Video": false,
        "Lat": 53.9580873,
        "Lon": 14.1651233,
        "Name": "Heringsdorf Rosengarten",
        "Personenzahl": null,
        "Stand": null,
        "consent": false,
        "origin": "https://media.webdatendienst.de/webcam1_a.jpg"
    },
    {
        "ID": 85,
        "URL": "http://www.usedom-downloads.de/public/aktuell/strandhotel-ostseeblick.jpg",
        "Video": false,
        "Lat": 53.9579537,
        "Lon": 14.1634293,
        "Name": "Heringsdorf Strandhotel",
        "Personenzahl": null,
        "Stand": null,
        "consent": false,
        "origin": "http://www.usedom-downloads.de/public/aktuell/strandhotel-ostseeblick.jpg"
    },
    {
        "ID": 86,
        "URL": "https://www.pension-erdmann.de/ftp/MOBOTIX/test.jpg",
        "Video": false,
        "Lat": 53.9563353,
        "Lon": 14.1682633,
        "Name": "Heringsdorf Strand",
        "Personenzahl": null,
        "Stand": null,
        "consent": false,
        "origin": "https://www.pension-erdmann.de/ftp/MOBOTIX/test.jpg"
    },
    {
        "ID": 87,
        "URL": "https://www.binz-kabel.de/camserv/images/schmachter.jpeg",
        "Video": false,
        "Lat": 54.3990262,
        "Lon": 13.6058455,
        "Name": "Binz Schmachter See",
        "Personenzahl": null,
        "Stand": null,
        "consent": false,
        "origin": "https://www.binz-kabel.de/camserv/images/schmachter.jpeg"
    },
    {
        "ID": 88,
        "URL": "https://www.binz-kabel.de/camserv/images/baltik.jpeg",
        "Video": false,
        "Lat": 54.39988,
        "Lon": 13.6155413,
        "Name": "Binz Strandzugang",
        "Personenzahl": null,
        "Stand": null,
        "consent": false,
        "origin": "https://www.binz-kabel.de/camserv/images/baltik.jpeg"
    },
    {
        "ID": 89,
        "URL": "http://webcam.aquamaris.de/strand.jpg",
        "Video": false,
        "Lat": 54.6182222,
        "Lon": 13.3649393,
        "Name": "Juliusruh Hotel Aquamaris",
        "Personenzahl": null,
        "Stand": null,
        "consent": false,
        "origin": "http://webcam.aquamaris.de/strand.jpg"
    },
    {
        "ID": 94,
        "URL": "https://www.graal-mueritz.de/images/livebild-xl.jpg",
        "Video": false,
        "Lat": 54.259389,
        "Lon": 12.2394213,
        "Name": "Graal-Müritz Seebrücke",
        "Personenzahl": null,
        "Stand": null,
        "consent": false,
        "origin": "https://www.graal-mueritz.de/images/livebild-xl.jpg"
    },
    {
        "ID": 90,
        "URL": "http://www.glowe.de/webcam/webcamhd.jpg",
        "Video": false,
        "Lat": 54.5728915,
        "Lon": 13.4662861,
        "Name": "Glowe Strandpromenade",
        "Personenzahl": null,
        "Stand": null,
        "consent": false,
        "origin": "http://www.glowe.de/webcam/webcamhd.jpg"
    },
    {
        "ID": 91,
        "URL": "https://ferienwohnung-lietzow.de/webcam/image.jpg",
        "Video": false,
        "Lat": 54.484937,
        "Lon": 13.5039823,
        "Name": "Lietzow Strand",
        "Personenzahl": null,
        "Stand": null,
        "consent": false,
        "origin": "https://ferienwohnung-lietzow.de/webcam/image.jpg"
    },
    {
        "ID": 92,
        "URL": "http://webcams.stoneds.de/born/cam/hafen-born.jpg",
        "Video": false,
        "Lat": 54.382278,
        "Lon": 12.5282923,
        "Name": "Born Hafen",
        "Personenzahl": null,
        "Stand": null,
        "consent": false,
        "origin": "http://webcams.stoneds.de/born/cam/hafen-born.jpg"
    },
    {
        "ID": 93,
        "URL": "http://webcams.stoneds.de/wieck/cam/arche-wieck.jpg",
        "Video": false,
        "Lat": 54.4084895,
        "Lon": 12.5924506,
        "Name": "Wieck Hafen",
        "Personenzahl": null,
        "Stand": null,
        "consent": false,
        "origin": "http://webcams.stoneds.de/wieck/cam/arche-wieck.jpg"
    },
    {
        "ID": 94,
        "URL": "https://www.graal-mueritz.de/images/livebild-xl.jpg",
        "Video": false,
        "Lat": 54.259389,
        "Lon": 12.2394213,
        "Name": "Graal-Müritz Seebrücke",
        "Personenzahl": null,
        "Stand": null,
        "consent": false,
        "origin": "https://www.graal-mueritz.de/images/livebild-xl.jpg"
    },
    {
        "ID": 95,
        "URL": "https://www.ndr.de/public/webcams/wetter/greifswald.jpg",
        "Video": false,
        "Lat": 54.098952,
        "Lon": 13.3803343,
        "Name": "Greifswald Hafenstraße",
        "Personenzahl": null,
        "Stand": null,
        "consent": false,
        "origin": "https://www.ndr.de/public/webcams/wetter/greifswald.jpg"
    },
    {
        "ID": 96,
        "URL": "https://www.travelcharme.com/fileadmin/contents/02_ohk/ostseehotel-webcam2.jpg",
        "Video": false,
        "Lat": 54.154108,
        "Lon": 11.7593123,
        "Name": "Seebrücke Kühlungsborn",
        "Personenzahl": null,
        "Stand": null,
        "consent": false,
        "origin": "https://www.travelcharme.com/fileadmin/contents/02_ohk/ostseehotel-webcam2.jpg"
    },
    {
        "ID": 97,
        "URL": "https://www.travelcharme.com/fileadmin/contents/02_ohk/ostseehotel-webcam.jpg",
        "Video": false,
        "Lat": 54.154391,
        "Lon": 11.7576813,
        "Name": "Strand Kühlungsborn",
        "Personenzahl": null,
        "Stand": null,
        "consent": false,
        "origin": "https://www.travelcharme.com/fileadmin/contents/02_ohk/ostseehotel-webcam.jpg"
    },
    {
        "ID": 98,
        "URL": "https://www.warendorf.de/fileadmin/webcam.jpg",
        "Video": false,
        "Lat": 51.9524591,
        "Lon": 7.9884348,
        "Name": "Warendorf Marktplatz",
        "Personenzahl": null,
        "Stand": null,
        "consent": false,
        "origin": "https://www.warendorf.de/fileadmin/webcam.jpg"
    },
    {
        "ID": 99,
        "URL": "https://www.ahlen.de/fileadmin/daten/content/webcam/markt/marktplatz.jpg",
        "Video": false,
        "Lat": 51.7627334,
        "Lon": 7.886659,
        "Name": "Ahlen Marktplatz",
        "Personenzahl": null,
        "Stand": null,
        "consent": false,
        "origin": "https://www.ahlen.de/fileadmin/daten/content/webcam/markt/marktplatz.jpg"
    },
    {
        "ID": 100,
        "URL": "https://www.webcam.nethestadt.net/images2/webcam.jpg",
        "Video": false,
        "Lat": 51.71692,
        "Lon": 9.184242,
        "Name": "Brakel Marktplatz",
        "Personenzahl": null,
        "Stand": null,
        "consent": false,
        "origin": "https://www.webcam.nethestadt.net/images2/webcam.jpg"
    },
    {
        "ID": 101,
        "URL": "https://www.bad-lippspringe.de/webcam/weblication/wThumbnails/bild2-4cd9aef56fda338g1d2a93272cf57e51@min400.jpg",
        "Video": false,
        "Lat": 51.783902,
        "Lon": 8.816919,
        "Name": "Bad Lippspringe Rathausplatz",
        "Personenzahl": null,
        "Stand": null,
        "consent": false,
        "origin": "https://www.bad-lippspringe.de/webcam/weblication/wThumbnails/bild2-4cd9aef56fda338g1d2a93272cf57e51@min400.jpg"
    },
    {
        "ID": 102,
        "URL": "https://www.geseke.de/transfer/current.jpg",
        "Video": false,
        "Lat": 51.6396427,
        "Lon": 8.5096849,
        "Name": "Geeske Stiftskirche",
        "Personenzahl": null,
        "Stand": null,
        "consent": false,
        "origin": "https://www.geseke.de/transfer/current.jpg"
    },
    {
        "ID": 103,
        "URL": "https://www.webcam-bueren.de/aktuell/markt-bueren.jpg",
        "Video": false,
        "Lat": 51.552504,
        "Lon": 8.559583,
        "Name": "Markt Büren",
        "Personenzahl": null,
        "Stand": null,
        "consent": false,
        "origin": "https://www.webcam-bueren.de/aktuell/markt-bueren.jpg"
    },
    {
        "ID": 104,
        "URL": "https://www.holzminden.de/fileadmin/cam/cam2.jpg",
        "Video": false,
        "Lat": 51.828444,
        "Lon": 9.446849,
        "Name": "Holzminden Markt",
        "Personenzahl": null,
        "Stand": null,
        "consent": false,
        "origin": "https://www.holzminden.de/fileadmin/cam/cam2.jpg"
    },
    {
        "ID": 105,
        "URL": "https://www.detmold.de/fileadmin/user_upload/startseite/Politik_und_Rathaus/Online-Dienste/Webcams/rathaus/marktplatz.jpg",
        "Video": false,
        "Lat": 51.935092,
        "Lon": 8.879452,
        "Name": "Detmold Markt",
        "Personenzahl": null,
        "Stand": null,
        "consent": false,
        "origin": "https://www.detmold.de/fileadmin/user_upload/startseite/Politik_und_Rathaus/Online-Dienste/Webcams/rathaus/marktplatz.jpg"
    },
    {
        "ID": 106,
        "URL": "https://www.jever-aktiv.de/files/images/webcam/snapshot.jpg",
        "Video": false,
        "Lat": 53.5737392,
        "Lon": 7.9025184,
        "Name": "Jever Alter Markt",
        "Personenzahl": null,
        "Stand": null,
        "consent": false,
        "origin": "https://www.jever-aktiv.de/files/images/webcam/snapshot.jpg"
    },
    {
        "ID": 107,
        "URL": "http://www.dangast-erleben.de/webcam/dangast.jpg",
        "Video": false,
        "Lat": 53.4495097,
        "Lon": 8.1142938,
        "Name": "Dangast Rennweide Campingplatz",
        "Personenzahl": null,
        "Stand": null,
        "consent": false,
        "origin": "http://www.dangast-erleben.de/webcam/dangast.jpg"
    },
    {
        "ID": 108,
        "URL": "http://baltrumcam.md-systemhaus.de/webcam/markt.jpg",
        "Video": false,
        "Lat": 53.7293913,
        "Lon": 7.3699714,
        "Name": "Baltrum Markt",
        "Personenzahl": null,
        "Stand": null,
        "consent": false,
        "origin": "http://baltrumcam.md-systemhaus.de/webcam/markt.jpg"
    },
    {
        "ID": 109,
        "URL": "https://webcam.harlinger.de/webcamwtm.jpg",
        "Video": false,
        "Lat": 53.5737386,
        "Lon": 7.7803149,
        "Name": "Wittmund Markt",
        "Personenzahl": null,
        "Stand": null,
        "consent": false,
        "origin": "https://webcam.harlinger.de/webcamwtm.jpg"
    },
    {
        "ID": 110,
        "URL": "https://www.dzulko.de/files/images_webcam/webcam1/current.jpg",
        "Video": false,
        "Lat": 53.9620094,
        "Lon": 10.8785727,
        "Name": "Travemünde Strand",
        "Personenzahl": null,
        "Stand": null,
        "consent": false,
        "origin": "https://www.dzulko.de/files/images_webcam/webcam1/current.jpg"
    },
    {
        "ID": 111,
        "URL": "https://www.strandidyll.de/bilder/webcams/mast.jpg",
        "Video": false,
        "Lat": 54.1395166,
        "Lon": 10.9483135,
        "Name": "Grömitz Strandidyll",
        "Personenzahl": null,
        "Stand": null,
        "consent": false,
        "origin": "https://www.strandidyll.de/bilder/webcams/mast.jpg"
    },
    {
        "ID": 112,
        "URL": "https://www.groemitz.de/webcam/pics/aktuell_webcam.jpg",
        "Video": false,
        "Lat": 54.1441848,
        "Lon": 10.9584506,
        "Name": "Grömitz Promenade",
        "Personenzahl": null,
        "Stand": null,
        "consent": false,
        "origin": "https://www.groemitz.de/webcam/pics/aktuell_webcam.jpg"
    },
    {
        "ID": 113,
        "URL": "https://olbernhau.de/input/webcams/001/MOBOTIX_Stadtkirche/MOBOTIX_Stadtkirche.jpg",
        "Video": false,
        "Lat": 50.6612729,
        "Lon": 13.3330732,
        "Name": "Olbernhau Markt",
        "Personenzahl": null,
        "Stand": null,
        "consent": false,
        "origin": "https://olbernhau.de/input/webcams/001/MOBOTIX_Stadtkirche/MOBOTIX_Stadtkirche.jpg"
    },
    {
        "ID": 114,
        "URL": "https://olbernhau.de/input/webcams/002/MOBOTIX_Saigerhuette/MOBOTIX_Saigerhuette.jpg",
        "Video": false,
        "Lat": 50.64922,
        "Lon": 13.3664812,
        "Name": "Olbernhau Saigerhütte",
        "Personenzahl": null,
        "Stand": null,
        "consent": false,
        "origin": "https://olbernhau.de/input/webcams/002/MOBOTIX_Saigerhuette/MOBOTIX_Saigerhuette.jpg"
    },
    {
        "ID": 115,
        "URL": "http://webcam.stadt-geyer.de/wachtturm/wachtturm620.jpg",
        "Video": false,
        "Lat": 50.624299,
        "Lon": 12.921386,
        "Name": "Geyer Markt",
        "Personenzahl": null,
        "Stand": null,
        "consent": false,
        "origin": "http://webcam.stadt-geyer.de/wachtturm/wachtturm620.jpg"
    },
    {
        "ID": 116,
        "URL": "https://webcam.extra-radio.de/webcams/cam01/cam01.jpg",
        "Video": false,
        "Lat": 50.3176608,
        "Lon": 11.9132267,
        "Name": "Hof Altstadt",
        "Personenzahl": null,
        "Stand": null,
        "consent": false,
        "origin": "https://webcam.extra-radio.de/webcams/cam01/cam01.jpg"
    },
    {
        "ID": 117,
        "URL": "https://www.selb.de/html/webcam2/live.jpg",
        "Video": false,
        "Lat": 50.1696708,
        "Lon": 12.1289059,
        "Name": "Selb Markt",
        "Personenzahl": null,
        "Stand": null,
        "consent": false,
        "origin": "https://www.selb.de/html/webcam2/live.jpg"
    },
    {
        "ID": 118,
        "URL": "http://stadt-weissenstadt.ftp.procomp.de/project/weissenstadt/camobo.jpg",
        "Video": false,
        "Lat": 50.1012387,
        "Lon": 11.8828722,
        "Name": "Weissenstadt Marktplatz",
        "Personenzahl": null,
        "Stand": null,
        "consent": false,
        "origin": "http://stadt-weissenstadt.ftp.procomp.de/project/weissenstadt/camobo.jpg"
    },
    {
        "ID": 119,
        "URL": "https://ftp.marktredwitz.de/ftpwebcam/Camobo.jpg",
        "Video": false,
        "Lat": 50.0009721,
        "Lon": 12.0846975,
        "Name": "Markredwitz Fußgängerzone",
        "Personenzahl": null,
        "Stand": null,
        "consent": false,
        "origin": "https://ftp.marktredwitz.de/ftpwebcam/Camobo.jpg"
    },
    {
        "ID": 120,
        "URL": "http://bwjgbg.de/Webcam/marktplatzcam.jpg",
        "Video": false,
        "Lat": 50.05265,
        "Lon": 11.7955988,
        "Name": "Bischofsgrün Marktplatz",
        "Personenzahl": null,
        "Stand": null,
        "consent": false,
        "origin": "http://bwjgbg.de/Webcam/marktplatzcam.jpg"
    },
    {
        "ID": 121,
        "URL": "http://www.bruchsal.de/bruchsal/webcam/stadtnetz-cam.jpg",
        "Video": false,
        "Lat": 49.124,
        "Lon": 8.596,
        "Name": "Bruchsal Marktplatz",
        "Personenzahl": null,
        "Stand": null,
        "consent": false,
        "origin": "http://www.bruchsal.de/bruchsal/webcam/stadtnetz-cam.jpg"
    },
    {
        "ID": 122,
        "URL": "https://www.bad-toelz.de/fileadmin/webcams/wiedemanncam/aaa.jpg",
        "Video": false,
        "Lat": 47.7611143,
        "Lon": 11.5582509,
        "Name": "Bad Tölz Marktstrasse",
        "Personenzahl": null,
        "Stand": null,
        "consent": false,
        "origin": "https://www.bad-toelz.de/fileadmin/webcams/wiedemanncam/aaa.jpg"
    },
    {
        "ID": 123,
        "URL": "https://www.bad-toelz.de/fileadmin/webcams/kurierrauf/current.jpg",
        "Video": false,
        "Lat": 47.7608979,
        "Lon": 11.5577,
        "Name": "Bad Tölz Marienbrunnen",
        "Personenzahl": null,
        "Stand": null,
        "consent": false,
        "origin": "https://www.bad-toelz.de/fileadmin/webcams/kurierrauf/current.jpg"
    },
    {
        "ID": 124,
        "URL": "https://www.bad-toelz.de/fileadmin/webcams/isarbruecke/current.jpg",
        "Video": false,
        "Lat": 47.7597492,
        "Lon": 11.5566962,
        "Name": "Bad Tölz Isarbrücke",
        "Personenzahl": null,
        "Stand": null,
        "consent": false,
        "origin": "https://www.bad-toelz.de/fileadmin/webcams/isarbruecke/current.jpg"
    },
    {
        "ID": 125,
        "URL": "https://www.foto-webcam.eu/webcam/fuerstenfeld/current/640.jpg",
        "Video": false,
        "Lat": 48.1702511,
        "Lon": 11.2463656,
        "Name": "Fürstenfeldbruck Veranstaltungsforum",
        "Personenzahl": null,
        "Stand": null,
        "consent": false,
        "origin": "https://www.foto-webcam.eu/webcam/fuerstenfeld/current/640.jpg"
    },
    {
        "ID": 126,
        "URL": "http://www.bayernwebcam.de/bilder/badbayersoien.jpg",
        "Video": true,
        "Lat": 47.6886425,
        "Lon": 11.0038248,
        "Name": "Bad Bayersoien",
        "Personenzahl": null,
        "Stand": null,
        "consent": false,
        "origin": "http://www.bayernwebcam.de/bilder/badbayersoien.jpg"
    },
    {
        "ID": 127,
        "URL": "http://93.241.229.242:8081/tmpfs/auto.jpg?usr=gast&pwd=gast",
        "Video": true,
        "Lat": 47.8042656,
        "Lon": 12.8545399,
        "Name": "Anger",
        "Personenzahl": null,
        "Stand": null,
        "consent": false,
        "origin": "http://93.241.229.242:8081/tmpfs/auto.jpg?usr=gast&pwd=gast"
    },
    {
        "ID": 128,
        "URL": "http://80.151.86.36:8082/cgi-bin/hi3510/mjpegstream.cgi?-chn=11&-usr=gast&-pwd=gast",
        "Video": true,
        "Lat": 48.2265126,
        "Lon": 12.6736169,
        "Name": "Altötting Kapellplatz",
        "Personenzahl": null,
        "Stand": null,
        "consent": false,
        "origin": "http://80.151.86.36:8082/cgi-bin/hi3510/mjpegstream.cgi?-chn=11&-usr=gast&-pwd=gast"
    },  
    {
        "ID": 130,
        "URL": "http://www.bayernwebcam.de/bilder/badrottach.jpg",
        "Video": false,
        "Lat": 47.6947075,
        "Lon": 11.7684548,
        "Name": "Rottach-Egern See- und Warmbad",
        "Personenzahl": null,
        "Stand": null,
        "consent": false,
        "origin": "http://www.bayernwebcam.de/bilder/badrottach.jpg"
    },
    {
        "ID": 131,
        "URL": "http://hofe19.ddns3-instar.de/tmpfs/auto.jpg?usr=test&pwd=test",
        "Video": false,
        "Lat": 47.7193637,
        "Lon": 11.7249028,
        "Name": "Bad Wiessee",
        "Personenzahl": null,
        "Stand": null,
        "consent": false,
        "origin": "http://hofe19.ddns3-instar.de/tmpfs/auto.jpg?usr=test&pwd=test"
    },
    {
        "ID": 132,
        "URL": "http://217.86.136.114:8081/tmpfs/auto.jpg?usr=gast&pwd=gast",
        "Video": false,
        "Lat": 48.241489,
        "Lon": 12.6816685,
        "Name": "Neuötting",
        "Personenzahl": null,
        "Stand": null,
        "consent": false,
        "origin": "http://217.86.136.114:8081/tmpfs/auto.jpg?usr=gast&pwd=gast"
    },
    {
        "ID": 133,
        "URL": "http://camyacht.dyndns.org/record/current.jpg",
        "Video": false,
        "Lat": 47.8520576,
        "Lon": 12.3665843,
        "Name": "Prien am Chiemsee Yachthotel",
        "Personenzahl": null,
        "Stand": null,
        "consent": false,
        "origin": "http://camyacht.dyndns.org/record/current.jpg"
    },
    {
        "ID": 134,
        "URL": "http://www.bayernwebcam.de/bilder/tann.jpg",
        "Video": false,
        "Lat": 48.3147035,
        "Lon": 12.8913274,
        "Name": "Tann",
        "Personenzahl": null,
        "Stand": null,
        "consent": false,
        "origin": "http://www.bayernwebcam.de/bilder/tann.jpg"
    },
    {
        "ID": 135,
        "URL": "http://www.bayernwebcam.de/bilder/traunreut3.jpg",
        "Video": false,
        "Lat": 47.9622555,
        "Lon": 12.5915258,
        "Name": "Traunreut Stadplatz",
        "Personenzahl": null,
        "Stand": null,
        "consent": false,
        "origin": "http://www.bayernwebcam.de/bilder/traunreut3.jpg"
    },
    {
        "ID": 136,
        "URL": "http://www.bayernwebcam.de/bilder/traunreut1.jpg",
        "Video": false,
        "Lat": 47.9619648,
        "Lon": 12.5916437,
        "Name": "Traunreut Rathausplatz",
        "Personenzahl": null,
        "Stand": null,
        "consent": false,
        "origin": "http://www.bayernwebcam.de/bilder/traunreut1.jpg"
    },
    {
        "ID": 137,
        "URL": "http://mail2.tuessling.de:8081/tmpfs/auto.jpg?usr=gast&pwd=gast",
        "Video": false,
        "Lat": 48.2124029,
        "Lon": 12.6000408,
        "Name": "Tüßling Marktplatz",
        "Personenzahl": null,
        "Stand": null,
        "consent": false,
        "origin": "http://mail2.tuessling.de:8081/tmpfs/auto.jpg?usr=gast&pwd=gast"
    },
    {
        "ID": 138,
        "URL": "https://s2.ipcamlive.com/streams/025f10c0a75d66429/snapshot.jpg",
        "Video": false,
        "Lat": 54.1942127,
        "Lon": 9.0913467,
        "Name": "Heide Südermarkt",
        "Personenzahl": null,
        "Stand": null,
        "consent": false,
        "origin": "https://s2.ipcamlive.com/streams/025f10c0a75d66429/snapshot.jpg"
    },
    {
        "ID": 139,
        "URL": "http://ramelow-heide-kabel.itsg-ip.net:8081/jpg/image.jpg?resolution=1024x576&compression=0&rn=0.27102984588434886",
        "Video": false,
        "Lat": 54.1945803,
        "Lon": 9.0936328,
        "Name": "Heide Markt",
        "Personenzahl": null,
        "Stand": null,
        "consent": false,
        "origin": "http://ramelow-heide-kabel.itsg-ip.net:8081/jpg/image.jpg?resolution=1024x576&compression=0&rn=0.27102984588434886"
    },
    {
        "ID": 140,
        "URL": "https://www.bicos.de/webcam/webcam1.jpg",
        "Video": false,
        "Lat": 52.0233659,
        "Lon": 8.5314551,
        "Name": "Bielefeld Jahnplatz-West",
        "Personenzahl": null,
        "Stand": null,
        "consent": false,
        "origin": "https://www.bicos.de/webcam/webcam1.jpg"
    },
    {
        "ID": 141,
        "URL": "https://www.bicos.de/webcam/webcam4.jpg",
        "Video": false,
        "Lat": 52.0233659,
        "Lon": 8.5314551,
        "Name": "Bielefeld Jahnplatz-Nord",
        "Personenzahl": null,
        "Stand": null,
        "consent": false,
        "origin": "https://www.bicos.de/webcam/webcam4.jpg"
    },
    {
        "ID": 142,
        "URL": "https://www.memmingen.de/webcam/current_640.jpg",
        "Video": false,
        "Lat": 47.985929,
        "Lon": 10.179546,
        "Name": "Memmingen Rathausplatz Altstadt",
        "Personenzahl": null,
        "Stand": null,
        "consent": false,
        "origin": "https://www.memmingen.de/webcam/current_640.jpg"
    },
    {
        "ID": 143,
        "URL": "https://www.bad-saeckingen.de/webcam/current_640px.jpg",
        "Video": false,
        "Lat": 47.549652,
        "Lon": 7.949982,
        "Name": "Bad Säckingen Altstadt",
        "Personenzahl": null,
        "Stand": null,
        "consent": false,
        "origin": "https://www.bad-saeckingen.de/webcam/current_640px.jpg"
    },
    {
        "ID": 144,
        "URL": "https://www.tuebingen.de/camera/webcam_marktplatz.jpg",
        "Video": false,
        "Lat": 48.520344,
        "Lon": 9.053346,
        "Name": "Tübingen Marktplatz",
        "Personenzahl": null,
        "Stand": null,
        "consent": false,
        "origin": "https://www.tuebingen.de/camera/webcam_marktplatz.jpg"
    },
    {
        "ID": 145,
        "URL": "https://kaupisch-it.de/cam2/Markt01.jpg",
        "Video": false,
        "Lat": 51.629873,
        "Lon": 13.708577,
        "Name": "Finsterwalde Marktplatz",
        "Personenzahl": null,
        "Stand": null,
        "consent": false,
        "origin": "https://kaupisch-it.de/cam2/Markt01.jpg"
    },
    {
        "ID": 146,
        "URL": "https://www.harztourist.de/extern/cam/aktuell/brocken01.jpg",
        "Video": false,
        "Lat": 51.799805,
        "Lon": 10.61554,
        "Name": "Wernigerode Brocken Plateau",
        "Personenzahl": null,
        "Stand": null,
        "consent": false,
        "origin": "https://www.harztourist.de/extern/cam/aktuell/brocken01.jpg"
    },
    {
        "ID": 147,
        "URL": "https://db0smg.de/cgi-bin/liesel3.jpg",
        "Video": false,
        "Lat": 51.532562,
        "Lon": 9.935471,
        "Name": "Göttingen Historisches Rathaus",
        "Personenzahl": null,
        "Stand": null,
        "consent": false,
        "origin": "https://db0smg.de/cgi-bin/liesel3.jpg"
    },
    {
        "ID": 148,
        "URL": "http://www.webcam-korbach.de/webcam1.jpg",
        "Video": false,
        "Lat": 51.274615,
        "Lon": 8.87153,
        "Name": "Korbach Fußgängerzone Korbach - Prof.-Bier-Straße",
        "Personenzahl": null,
        "Stand": null,
        "consent": false,
        "origin": "http://www.webcam-korbach.de/webcam1.jpg"
    },
    {
        "ID": 149,
        "URL": "https://www.volkach.de/webcam/video_PE.jpg",
        "Video": false,
        "Lat": 49.865729,
        "Lon": 10.226008,
        "Name": "Volkach Rathausplatz",
        "Personenzahl": null,
        "Stand": null,
        "consent": false,
        "origin": "https://www.volkach.de/webcam/video_PE.jpg"
    },
    {
        "ID": 150,
        "URL": "http://ftp.rodgau.de/webcam_rathaus.jpg",
        "Video": false,
        "Lat": 50.025774,
        "Lon": 8.883991,
        "Name": "Rodgau: Platz vor dem Rathaus Jügesheim",
        "Personenzahl": null,
        "Stand": null,
        "consent": false,
        "origin": "http://ftp.rodgau.de/webcam_rathaus.jpg"
    },
    {
        "ID": 151,
        "URL": "https://www.foto-webcam.eu/webcam/zugspitze/current/720.jpg",
        "Link": "https://www.foto-webcam.eu/webcam/zugspitze/",
        "Video": false,
        "Lat": 47.42083,
        "Lon": 10.98473,
        "Name": "Grainau Wetterwarte Zugspitze",
        "Personenzahl": null,
        "Stand": null,
        "consent": false,
        "origin": "https://www.foto-webcam.eu/webcam/zugspitze/current/720.jpg"
    },
    {
        "ID": 152,
        "URL": "https://webcam.uni-hildesheim.de/webcam/snapshot/fullsize.jpg",
        "Video": false,
        "Lat": 52.133857,
        "Lon": 9.974771,
        "Name": "Hildesheim Campus der Universität",
        "Personenzahl": null,
        "Stand": null,
        "consent": true,
        "origin": "https://www.hildesheim.de/rathaus/webcams.html"
    },
    {
        "ID": 153,
        "URL": "http://www.sparkassen-cam.de/_webcam/ratzeburg/images/current.jpg",
        "Video": false,
        "Lat": 53.699597,
        "Lon": 10.774809,
        "Name": "Ratzeburg",
        "Personenzahl": null,
        "Stand": null,
        "consent": false,
        "origin": "http://www.sparkassen-cam.de/_webcam/ratzeburg/images/current.jpg"
    },
    {
        "ID": 154,
        "URL": "http://hersbruck.de/wp-content/uploads/livecam/rathaus/rathaus.jpg",
        "Video": false,
        "Lat": 49.508756,
        "Lon": 11.428925,
        "Name": "Hersbruck Oberer Markt",
        "Personenzahl": null,
        "Stand": null,
        "consent": false,
        "origin": "http://hersbruck.de/wp-content/uploads/livecam/rathaus/rathaus.jpg"
    },
    {
        "ID": 155,
        "URL": "https://webcam.gerolzhofen.de/webcam1_gr.jpg",
        "Video": false,
        "Lat": 49.900937,
        "Lon": 10.349615,
        "Name": "Gerolzhofen Marktplatz",
        "Personenzahl": null,
        "Stand": null,
        "consent": false,
        "origin": "https://webcam.gerolzhofen.de/webcam1_gr.jpg"
    },
    {
        "ID": 156,
        "URL": "https://webcam.gerolzhofen.de/webcam2_gr.jpg",
        "Video": false,
        "Lat": 49.900937,
        "Lon": 10.349615,
        "Name": "Gerolzhofen Marktplatz",
        "Personenzahl": null,
        "Stand": null,
        "consent": false,
        "origin": "https://webcam.gerolzhofen.de/webcam2_gr.jpg"
    },
    {
        "ID": 157,
        "URL": "https://webcam.bootsurlaub.de/mueritz.jpg",
        "Video": false,
        "Lat": 53.512245,
        "Lon": 12.689037,
        "Name": "Waren Stadthafen",
        "Personenzahl": null,
        "Stand": null,
        "consent": false,
        "origin": "https://webcam.bootsurlaub.de/mueritz.jpg"
    },
    {
        "ID": 158,
        "URL": "http://217.7.233.140/record/current.jpg",
        "Video": false,
        "Lat": 47.941331,
        "Lon": 10.299983,
        "Name": "Ottobeuren Marktplatz",
        "Personenzahl": null,
        "Stand": null,
        "consent": false,
        "origin": "http://217.7.233.140/record/current.jpg"
    },
    {
        "ID": 159,
        "URL": "https://www.esens-online.de/webcam/image.jpg",
        "Video": false,
        "Lat": 53.646851,
        "Lon": 7.610221,
        "Name": "Esens",
        "Personenzahl": null,
        "Stand": null,
        "consent": false,
        "origin": "https://www.esens-online.de/webcam/image.jpg"
    },
    {
        "ID": 160,
        "URL": "http://www.usiepert.de/images/webcam/archiv/webcam0001.jpg",
        "Video": false,
        "Lat": 51.905278,
        "Lon": 10.427876,
        "Name": "Goslar Marktkirche",
        "Personenzahl": null,
        "Stand": null,
        "consent": false,
        "origin": "http://www.usiepert.de/images/webcam/archiv/webcam0001.jpg"
    },
    {
        "ID": 160,
        "URL": "https://pics.hohemark-apotheke.de/download/marktpatz.jpg",
        "Video": false,
        "Lat": 50.20296,
        "Lon": 8.577071,
        "Name": "Oberursel Marktplatz",
        "Personenzahl": null,
        "Stand": null,
        "consent": false,
        "origin": "https://pics.hohemark-apotheke.de/download/marktpatz.jpg"
    },
    {
        "ID": 161,
        "URL": "http://www2.seesen.de/webcam/bghaus.jpg",
        "Video": false,
        "Lat": 51.889286,
        "Lon": 10.176129,
        "Name": "Seesen Bürgerhau",
        "Personenzahl": null,
        "Stand": null,
        "consent": false,
        "origin": "http://www2.seesen.de/webcam/bghaus.jpg"
    },
    {
        "ID": 162,
        "URL": "http://www2.seesen.de/webcam/bghaus.jpg",
        "Video": false,
        "Lat": 51.889286,
        "Lon": 10.176129,
        "Name": "Seesen Bürgerhau",
        "Personenzahl": null,
        "Stand": null,
        "consent": false,
        "origin": "http://www2.seesen.de/webcam/bghaus.jpg"
    },
    {
        "ID": 163,
        "URL": "https://www.ostseebad-wustrow.de/var/ostseebad-wustrow/storage/webcams/images/kamera3.jpg",
        "Video": false,
        "Lat": 54.351567,
        "Lon": 12.385926,
        "Name": "Wustrow Seebrücke",
        "Personenzahl": null,
        "Stand": null,
        "consent": false,
        "origin": "https://www.ostseebad-wustrow.de/var/ostseebad-wustrow/storage/webcams/images/kamera3.jpg"
    },
    {
        "ID": 164,
        "URL": "https://www.ostseebad-wustrow.de/var/ostseebad-wustrow/storage/webcams/images/kamera4.jpg",
        "Video": false,
        "Lat": 54.351567,
        "Lon": 12.385926,
        "Name": "Wustrow Seebrücke",
        "Personenzahl": null,
        "Stand": null,
        "consent": false,
        "origin": "https://www.ostseebad-wustrow.de/var/ostseebad-wustrow/storage/webcams/images/kamera4.jpg"
    },
    {
        "ID": 165,
        "URL": "https://www.ostseebad-wustrow.de/var/ostseebad-wustrow/storage/webcams/images/kamera5.jpg",
        "Video": false,
        "Lat": 54.351567,
        "Lon": 12.385926,
        "Name": "Wustrow Seebrücke",
        "Personenzahl": null,
        "Stand": null,
        "consent": false,
        "origin": "https://www.ostseebad-wustrow.de/var/ostseebad-wustrow/storage/webcams/images/kamera5.jpg"
    },
    {
        "ID": 166,
        "URL": "https://www.ostseebad-wustrow.de/var/ostseebad-wustrow/storage/webcams/images/kamera1.jpg",
        "Video": false,
        "Lat": 54.34416,
        "Lon": 12.3957543,
        "Name": "Wustrow Hafen",
        "Personenzahl": null,
        "Stand": null,
        "consent": false,
        "origin": "https://www.ostseebad-wustrow.de/var/ostseebad-wustrow/storage/webcams/images/kamera1.jpg"
    },
    {
        "ID": 167,
        "URL": "https://www.prerow.de/prerowbilder/kurbetrieb/webcam-prerow.jpg",
        "Video": false,
        "Lat": 54.453025,
        "Lon": 12.569561,
        "Name": "Prerow Seebrücke",
        "Personenzahl": null,
        "Stand": null,
        "consent": false,
        "origin": "https://www.prerow.de/prerowbilder/kurbetrieb/webcam-prerow.jpg"
    },
    {
        "ID": 168,
        "URL": "https://www.prerow.de/prerowbilder/strandzoom.jpg",
        "Video": false,
        "Lat": 54.453025,
        "Lon": 12.569561,
        "Name": "Prerow Strand Seebrücke Richtung Westen",
        "Personenzahl": null,
        "Stand": null,
        "consent": false,
        "origin": "https://www.prerow.de/prerowbilder/strandzoom.jpg"
    },
    {
        "ID": 169,
        "URL": "https://www.morada.de/livebilder/livebildpos1_640.jpg",
        "Video": false,
        "Lat": 54.154129,
        "Lon": 11.760457,
        "Name": "Kuhlungsborn Strand",
        "Personenzahl": null,
        "Stand": null,
        "consent": false,
        "origin": "https://www.morada.de/livebilder/livebildpos1_640.jpg"
    },
    {
        "ID": 170,
        "URL": "https://www.morada.de/livebilder/livebildpos2_640.jpg",
        "Video": false,
        "Lat": 54.154129,
        "Lon": 11.760457,
        "Name": "Kuhlungsborn Strand",
        "Personenzahl": null,
        "Stand": null,
        "consent": false,
        "origin": "https://www.morada.de/livebilder/livebildpos2_640.jpg"
    },
    {
        "ID": 172,
        "URL": "https://www.morada.de/livebilder/livebildpos3_640.jpg",
        "Video": false,
        "Lat": 54.154129,
        "Lon": 11.760457,
        "Name": "Kuhlungsborn Strand",
        "Personenzahl": null,
        "Stand": null,
        "consent": false,
        "origin": "https://www.morada.de/livebilder/livebildpos3_640.jpg"
    },
    {
        "ID": 173,
        "URL": "https://www.morada.de/livebilder/livebildpos4_640.jpg",
        "Video": false,
        "Lat": 54.154129,
        "Lon": 11.760457,
        "Name": "Kuhlungsborn Strand",
        "Personenzahl": null,
        "Stand": null,
        "consent": false,
        "origin": "https://www.morada.de/livebilder/livebildpos4_640.jpg"
    },
    {
        "ID": 174,
        "URL": "https://www.morada.de/livebilder/livebildpos5_640.jpg",
        "Video": false,
        "Lat": 54.154129,
        "Lon": 11.760457,
        "Name": "Kuhlungsborn Strand",
        "Personenzahl": null,
        "Stand": null,
        "consent": false,
        "origin": "https://www.morada.de/livebilder/livebildpos5_640.jpg"
    },
    {
        "ID": 175,
        "URL": "http:///www.strandidyll.de/webcam/strandidyll/seebruecke/aktuell.jpg",
        "Video": false,
        "Lat": 54.140417,
        "Lon": 10.952511,
        "Name": "Groemitz Strand",
        "Personenzahl": null,
        "Stand": null,
        "consent": false,
        "origin": "http:///www.strandidyll.de/webcam/strandidyll/seebruecke/aktuell.jpg"
    },   
    {
        "ID": 177,
        "URL": "https://www.io-warnemuende.de/tl_files/xWebcam/iow-webcam730.jpg",
        "Video": false,
        "Lat": 54.180169,
        "Lon": 12.081227,
        "Name": "Warnemünde Strand",
        "Personenzahl": null,
        "Stand": null,
        "consent": false,
        "origin": "https://www.io-warnemuende.de/tl_files/xWebcam/iow-webcam730.jpg"
    },
    {
        "ID": 178,
        "URL": "https://www.alfeld.de/fileadmin/webcam/vorschau2.php?img=cam.jpg",
        "Video": false,
        "Lat": 51.987411,
        "Lon": 9.825087,
        "Name": "Alfeld(Leine) Marktplatz",
        "Personenzahl": null,
        "Stand": null,
        "consent": false,
        "origin": "https://www.alfeld.de/fileadmin/webcam/vorschau2.php?img=cam.jpg"
    },
    {
        "ID": 178,
        "URL": "https://www.reutlingen.de/tools/showImage.php5",
        "Video": false,
        "Lat": 48.491342,
        "Lon": 9.211014,
        "Name": "Reutlingen Marktplatz",
        "Personenzahl": null,
        "Stand": null,
        "consent": false,
        "origin": "https://www.reutlingen.de/tools/showImage.php5"
    },
    {
        "ID": 179,
        "URL": "https://www.reutlingen.de/webcam/stadthalle/showImage.php5",
        "Video": false,
        "Lat": 48.491445,
        "Lon": 9.206456,
        "Name": "Reutlingen Stadthalle",
        "Personenzahl": null,
        "Stand": null,
        "consent": false,
        "origin": "https://www.reutlingen.de/webcam/stadthalle/showImage.php5"
    },
    {
        "ID": 180,
        "URL": "https://www.nagold.de/webcam/livebild.jpg",
        "Video": false,
        "Lat": 48.551338,
        "Lon": 8.722721,
        "Name": "Nagold Markt",
        "Personenzahl": null,
        "Stand": null,
        "consent": false,
        "origin": "https://www.nagold.de/webcam/livebild.jpg"
    },
    {
        "ID": 181,
        "URL": "https://www.webcam-unna.de/video.jpg",
        "Video": false,
        "Lat": 51.534176,
        "Lon": 7.689972,
        "Name": "Unna Marktplatz",
        "Personenzahl": null,
        "Stand": null,
        "consent": false,
        "origin": "https://www.webcam-unna.de/video.jpg"
    },
    {
        "ID": 182,
        "URL": "https://cam.kitzingen.info/cam01.jpg",
        "Video": false,
        "Lat": 49.738945,
        "Lon": 10.161731,
        "Name": "Kitzingen Marktplatz",
        "Personenzahl": null,
        "Stand": null,
        "consent": false,
        "origin": "https://cam.kitzingen.info/cam01.jpg"
    },
    {
        "ID": 183,
        "URL": "https://cam.kitzingen.info/cam02.jpg",
        "Video": false,
        "Lat": 49.7403456,
        "Lon": 10.1630422,
        "Name": "Kitzingen Mainbrücke",
        "Personenzahl": null,
        "Stand": null,
        "consent": false,
        "origin": "https://cam.kitzingen.info/cam02.jpg"
    },
    {
        "ID": 184,
        "URL": "https://www.webcam-aschaffenburg.de/Webcams/Aschaffenburg-Schloss-Webcam.jpg",
        "Video": false,
        "Lat": 49.975879,
        "Lon": 9.144337,
        "Name": "Aschaffenburg Schloss",
        "Personenzahl": null,
        "Stand": null,
        "consent": false,
        "origin": "https://www.webcam-aschaffenburg.de/Webcams/Aschaffenburg-Schloss-Webcam.jpg"
    },
    {
        "ID": 185,
        "URL": "https://www.steinhude-am-meer.de/webcams/webcam2_promenade//thumb/promenade_2020_0731_202423_01_600.jpg",
        "Video": false,
        "Lat": 52.454663,
        "Lon": 9.350653,
        "Name": "Steinhude Uferpromenade",
        "Personenzahl": null,
        "Stand": null,
        "consent": false,
        "origin": "https://www.steinhude-am-meer.de/webcams/webcam2_promenade//thumb/promenade_2020_0731_202423_01_600.jpg"
    },
    {
        "ID": 186,
        "URL": "https://www.steinhude-am-meer.de/webcams/webcam-weinscheune//thumb/P20073121344610_600.jpg",
        "Video": false,
        "Lat": 52.4564356,
        "Lon": 9.3588943,
        "Name": "Steinhude Weinscheune",
        "Personenzahl": null,
        "Stand": null,
        "consent": false,
        "origin": "https://www.steinhude-am-meer.de/webcams/webcam-weinscheune//thumb/P20073121344610_600.jpg"
    },
    {
        "ID": 187,
        "URL": "https://87.139.63.28/record/current.jpg",
        "Video": false,
        "Lat": 54.303281,
        "Lon": 9.667277,
        "Name": "Rendsburg Innenstadt",
        "Personenzahl": null,
        "Stand": null,
        "consent": false,
        "origin": "https://87.139.63.28/record/current.jpg"
    },
    {
        "ID": 188,
        "URL": "https://www.schwaebisch-gmuend.de/files/upload/webcam/marktplatz1/gmuendcam.jpg",
        "Video": false,
        "Lat": 48.799521,
        "Lon": 9.798217,
        "Name": "Schwäbisch Gmünd Marktplatz",
        "Personenzahl": null,
        "Stand": null,
        "consent": false,
        "origin": "https://www.schwaebisch-gmuend.de/files/upload/webcam/marktplatz1/gmuendcam.jpg"
    },
    {
        "ID": 189,
        "URL": "https://www.bergischgladbach.de/img/upload/webcam/webcam-gl.jpg",
        "Video": false,
        "Lat": 50.991468,
        "Lon": 7.129751,
        "Name": "Bergisch Gladbach Laurentiuskirche",
        "Personenzahl": null,
        "Stand": null,
        "consent": false,
        "origin": "https://www.bergischgladbach.de/img/upload/webcam/webcam-gl.jpg"
    },
    {
        "ID": 190,
        "URL": "https://www.bergischgladbach.de/img/upload/webcam/webcam-gl.jpg",
        "Video": false,
        "Lat": 50.991468,
        "Lon": 7.129751,
        "Name": "Bergisch Gladbach Laurentiuskirche",
        "Personenzahl": null,
        "Stand": null,
        "consent": false,
        "origin": "https://www.bergischgladbach.de/img/upload/webcam/webcam-gl.jpg"
    },
    {
        "ID": 191,
        "URL": "https://www.lemgo.de/fileadmin/image/webcam/aktuell.jpg",
        "Video": false,
        "Lat": 52.027802,
        "Lon": 8.901243,
        "Name": "Lemgo Markt",
        "Personenzahl": null,
        "Stand": null,
        "consent": false,
        "origin": "https://www.lemgo.de/fileadmin/image/webcam/aktuell.jpg"
    },
    {
        "ID": 192,
        "URL": "https://ewerk.tv/lvb/LVBHBF/lvbhbf.jpg",
        "Video": false,
        "Lat": 51.344231,
        "Lon": 12.379789,
        "Name": "Leipzig Hauptbahnhof",
        "Personenzahl": null,
        "Stand": null,
        "consent": false,
        "origin": "https://ewerk.tv/lvb/LVBHBF/lvbhbf.jpg"
    },
    {
        "ID": 193,
        "URL": "https://webcam.leuchtengalerie.com/webcam/leuchtengalerie.jpg",
        "Video": false,
        "Lat": 48.521055,
        "Lon": 9.053402,
        "Name": "Tübingen Marktgasse",
        "Personenzahl": null,
        "Stand": null,
        "consent": false,
        "origin": "https://webcam.leuchtengalerie.com/webcam/leuchtengalerie.jpg"
    },
    {
        "ID": 194,
        "URL": "https://www.mindelheim.de/webcam/image.jpg",
        "Video": false,
        "Lat": 48.046565,
        "Lon": 10.488607,
        "Name": "Mindelheim Marienplatz",
        "Personenzahl": null,
        "Stand": null,
        "consent": false,
        "origin": "https://www.mindelheim.de/webcam/image.jpg"
    },
    {
        "ID": 195,
        "URL": "https://webcam.bitel.info/webcamgt01",
        "Video": false,
        "Lat": 51.902646,
        "Lon": 8.395722,
        "Name": "Gütersloh Berliner Platz",
        "Personenzahl": null,
        "Stand": null,
        "consent": false,
        "origin": "https://webcam.bitel.info/webcamgt01"
    },
    {
        "ID": 196,
        "URL": "https://www.herborn.de/de/img/webcam/webcam-herborn.jpg",
        "Video": false,
        "Lat": 50.683129,
        "Lon": 8.303272,
        "Name": "Herborn",
        "Personenzahl": null,
        "Stand": null,
        "consent": false,
        "origin": "https://www.herborn.de/de/img/webcam/webcam-herborn.jpg"
    },
    {
        "ID": 197,
        "URL": "https://www.oecking.net/webcam3/current.jpg",
        "Video": false,
        "Lat": 51.531379,
        "Lon": 7.414863,
        "Name": "Dortmund Marktplatz Huckarde",
        "Personenzahl": null,
        "Stand": null,
        "consent": false,
        "origin": "https://www.oecking.net/webcam3/current.jpg"
    },
    {
        "ID": 198,
        "URL": "https://www.chamaeleon-hosting.de/svgifhorn/current.jpg",
        "Video": false,
        "Lat": 52.488406,
        "Lon": 10.545119,
        "Name": "Gifhorn Marktplatz",
        "Personenzahl": null,
        "Stand": null,
        "consent": false,
        "origin": "https://www.chamaeleon-hosting.de/svgifhorn/current.jpg"
    },
    {
        "ID": 199,
        "URL": "https://www.virtuell.norden.de/Webcam/marktplatz.jpg",
        "Video": false,
        "Lat": 53.595529,
        "Lon": 7.206196,
        "Name": "Norden Marktplatz",
        "Personenzahl": null,
        "Stand": null,
        "consent": false,
        "origin": "https://www.virtuell.norden.de/Webcam/marktplatz.jpg"
    },
    {
        "ID": 200,
        "URL": "https://web1.karlsruhe.de/Gifs/webcam_marktplatz.jpg",
        "Video": false,
        "Lat": 49.008101,
        "Lon": 8.403618,
        "Name": "Karlsruhe Marktplatz",
        "Personenzahl": null,
        "Stand": null,
        "consent": false,
        "origin": "https://web1.karlsruhe.de/Gifs/webcam_marktplatz.jpg"
    },
    {
        "ID": 201,
        "URL": "https://webcam.lauterbach-hessen.de/cam_01.jpg",
        "Video": false,
        "Lat": 50.636901,
        "Lon": 9.396846,
        "Name": "Lauterbach Marktplatz",
        "Personenzahl": null,
        "Stand": null,
        "consent": false,
        "origin": "https://webcam.lauterbach-hessen.de/cam_01.jpg"
    },
    {
        "ID": 202,
        "URL": "https://www.besser-bad-harzburg.de/BBHCAM01/Aktuell.jpg",
        "Video": false,
        "Lat": 51.880286,
        "Lon": 10.559717,
        "Name": "Bad Harzburg Jungbrunnen",
        "Personenzahl": null,
        "Stand": null,
        "consent": false,
        "origin": "https://www.besser-bad-harzburg.de/BBHCAM01/Aktuell.jpg"
    },
    {
        "ID": 203,
        "URL": "https://www.punktapotheke.de/webcam/webcam.jpg",
        "Video": false,
        "Lat": 52.20027,
        "Lon": 8.589227,
        "Name": "Tönnies Wellensiek-Platz",
        "Personenzahl": null,
        "Stand": null,
        "consent": false,
        "origin": "https://www.punktapotheke.de/webcam/webcam.jpg"
    },
    {
        "ID": 204,
        "URL": "https://www2.braunschweig.de/webcam/burgplatz1.jpg",
        "Video": false,
        "Lat": 52.264607,
        "Lon": 10.524012,
        "Name": "Braunschweig Burgplatz",
        "Personenzahl": null,
        "Stand": null,
        "consent": false,
        "origin": "https://www2.braunschweig.de/webcam/burgplatz1.jpg"
    },
    {
        "ID": 205,
        "URL": "https://www2.braunschweig.de/webcam/turm1.jpg",
        "Video": false,
        "Lat": 52.26499,
        "Lon": 10.524652,
        "Name": "Braunschweig Vor der Burg",
        "Personenzahl": null,
        "Stand": null,
        "consent": false,
        "origin": "https://www2.braunschweig.de/webcam/turm1.jpg"
    },
    {
        "ID": 206,
        "URL": "https://www.norderney-strandnah.de/MOBOTIX/test.jpg",
        "Video": false,
        "Lat": 53.712577,
        "Lon": 7.150485,
        "Name": "Norderney Nordstrand",
        "Personenzahl": null,
        "Stand": null,
        "consent": false,
        "origin": "https://www.norderney-strandnah.de/MOBOTIX/test.jpg"
    },
    {
        "ID": 207,
        "URL": "https://www.villingen-schwenningen.de/cam/rietstr.jpg",
        "Video": false,
        "Lat": 48.059743,
        "Lon": 8.456297,
        "Name": "Villingen Zentrum",
        "Personenzahl": null,
        "Stand": null,
        "consent": false,
        "origin": "https://www.villingen-schwenningen.de/cam/rietstr.jpg"
    },
    {
        "ID": 208,
        "URL": "https://www.villingen-schwenningen.de/cam/muslen.jpg",
        "Video": false,
        "Lat": 48.063708,
        "Lon": 8.536988,
        "Name": "Schwenningen Muslenplatz",
        "Personenzahl": null,
        "Stand": null,
        "consent": false,
        "origin": "https://www.villingen-schwenningen.de/cam/muslen.jpg"
    },
    {
        "ID": 209,
        "URL": "https://www.swneumarkt.de/webcam/cam/snap_c1.jpg",
        "Video": false,
        "Lat": 49.280478,
        "Lon": 11.466486,
        "Name": "Freibad Neumarkt Oberpflaz",
        "Personenzahl": null,
        "Stand": null,
        "consent": false,
        "origin": "https://www.swneumarkt.de/webcam/cam/snap_c1.jpg"
    },
    {
        "ID": 210,
        "URL": "https://sylter-freizeit-team.de/php/webcam.php",
        "Video": false,
        "Lat": 54.754231,
        "Lon": 8.292704,
        "Name": "Sylt Hornum Strand",
        "Personenzahl": null,
        "Stand": null,
        "consent": false,
        "origin": "https://sylter-freizeit-team.de/php/webcam.php"
    },
    {
        "ID": 211,
        "URL": "https://www.deutsches-museum.de/fileadmin/Content/data/webcam/mushof_f.jpg",
        "Video": false,
        "Lat": 48.130118,
        "Lon": 11.584256,
        "Name": "München Deutsches Museum",
        "Personenzahl": null,
        "Stand": null,
        "consent": false,
        "origin": "https://www.deutsches-museum.de/fileadmin/Content/data/webcam/mushof_f.jpg"
    },
    {
        "ID": 212,
        "URL": "https://images-webcams.windy.com/45/1243602445/current/original/1243602445.jpg",
        "Video": false,
        "Lat": 53.512459,
        "Lon": 8.139088,
        "Name": "Wilhelmshaven Südstrandpromenade",
        "Personenzahl": null,
        "Stand": null,
        "consent": false,
        "origin": "https://images-webcams.windy.com/45/1243602445/current/original/1243602445.jpg"
    },
    {
        "ID": 213,
        "URL": "https://adx-cache.de/webcam/webcam.jpg",
        "Video": false,
        "Lat": 52.187319,
        "Lon": 9.081144,
        "Name": "Rinteln Marktplatz",
        "Personenzahl": null,
        "Stand": null,
        "consent": false,
        "origin": "https://adx-cache.de/webcam/webcam.jpg"
    },
    {
        "ID": 214,
        "URL": "https://www.landshut.de/typo3temp/pics/aa40b3ee13.jpg",
        "Video": false,
        "Lat": 48.536983,
        "Lon": 12.152113,
        "Name": "Landshut Altstadt",
        "Personenzahl": null,
        "Stand": null,
        "consent": false,
        "origin": "https://www.landshut.de/typo3temp/pics/aa40b3ee13.jpg"
    },
    {
        "ID": 215,
        "URL": "https://www.landshut.de/uploads/pics/lalive_1.jpg",
        "Video": false,
        "Lat": 48.53613,
        "Lon": 12.151576,
        "Name": "Landshut Innenstadt",
        "Personenzahl": null,
        "Stand": null,
        "consent": false,
        "origin": "https://www.landshut.de/uploads/pics/lalive_1.jpg"
    },
    {
        "ID": 217,
        "URL": "https://stadthagen.active-city.net/tropicana/webcam/sthcam1.jpg",
        "Video": false,
        "Lat": 52.323727,
        "Lon": 9.204531,
        "Name": "Stadthagen Marktplatz",
        "Personenzahl": null,
        "Stand": null,
        "consent": false,
        "origin": "https://stadthagen.active-city.net/tropicana/webcam/sthcam1.jpg"
    },
    {
        "ID": 218,
        "URL": "https://schapers.dvrdns.org/mjpg/video.mjpg?camera=1",
        "Video": true,
        "Lat": 54.680676,
        "Lon": 8.541344,
        "Name": "Schapers Strand",
        "Personenzahl": null,
        "Stand": null,
        "consent": false,
        "origin": "https://schapers.dvrdns.org/mjpg/video.mjpg?camera=1"
    },
    {
        "ID": 218,
        "URL": "https://www.nieblum-online.de/cam/cam1g.jpg",
        "Video": false,
        "Lat": 54.680969,
        "Lon": 8.492592,
        "Name": "Nieblum Strand",
        "Personenzahl": null,
        "Stand": null,
        "consent": false,
        "origin": "https://www.nieblum-online.de/cam/cam1g.jpg"
    },
    {
        "ID": 219,
        "URL": "https://www.haus-jensen.de/fileadmin/daten/hausjensen/webcam/current.jpg",
        "Video": false,
        "Lat": 54.680612000000007,
        "Lon": 8.537067,
        "Name": "Wyk Südstrand",
        "Personenzahl": null,
        "Stand": null,
        "consent": false,
        "origin": "https://www.haus-jensen.de/fileadmin/daten/hausjensen/webcam/current.jpg"
    },
    {
        "ID": 220,
        "URL": "https://webcam.oldsum-auf-foehr.de/oldsum_1.jpg",
        "Video": false,
        "Lat": 54.73312,
        "Lon": 8.449398,
        "Name": "Oldsum Ortskern",
        "Personenzahl": null,
        "Stand": null,
        "consent": false,
        "origin": "https://webcam.oldsum-auf-foehr.de/oldsum_1.jpg"
    },
    {
        "ID": 221,
        "URL": "https://www.utersum.info/webcam1.jpg",
        "Video": false,
        "Lat": 54.710378,
        "Lon": 8.395216,
        "Name": "Utersum Strand",
        "Personenzahl": null,
        "Stand": null,
        "consent": false,
        "origin": "https://www.utersum.info/webcam1.jpg"
    },
    {
        "ID": 222,
        "URL": "https://www.osnabrueck.de/webcam/marktplatz/image-marktplatz.jpg",
        "Video": false,
        "Lat": 52.277447,
        "Lon": 8.041188,
        "Name": "Osnabrück Marktplatz",
        "Personenzahl": null,
        "Stand": null,
        "consent": false,
        "origin": "https://www.osnabrueck.de/webcam/marktplatz/image-marktplatz.jpg"
    },
    {
        "ID": 223,
        "URL": "https://webcam.pfarrkirchen.de/livecam.jpg",
        "Video": false,
        "Lat": 48.432397,
        "Lon": 12.94038,
        "Name": "Pfarrkirchen Innenstadt",
        "Personenzahl": null,
        "Stand": null,
        "consent": false,
        "origin": "https://webcam.pfarrkirchen.de/livecam.jpg"
    },
    {
        "ID": 224,
        "URL": "https://webcam.fwv-vib.de/stadtplatz_99.jpg",
        "Video": false,
        "Lat": 48.448593,
        "Lon": 12.355692,
        "Name": "Vilsbiburg Zentrum",
        "Personenzahl": null,
        "Stand": null,
        "consent": false,
        "origin": "https://webcam.fwv-vib.de/stadtplatz_99.jpg"
    },
    {
        "ID": 225,
        "URL": "https://webcam.therme1.de/images/Therme1.jpg",
        "Video": false,
        "Lat": 48.354524,
        "Lon": 13.312801,
        "Name": "Bad Füssing Therme Eins",
        "Personenzahl": null,
        "Stand": null,
        "consent": false,
        "origin": "https://webcam.therme1.de/images/Therme1.jpg"
    },
    {
        "ID": 226,
        "URL": "https://gutscheinshop.europatherme.de/files/webcam/m1200000.jpg",
        "Video": false,
        "Lat": 48.351683,
        "Lon": 13.318692,
        "Name": "Bad Füssing Europatherme",
        "Personenzahl": null,
        "Stand": null,
        "consent": false,
        "origin": "https://gutscheinshop.europatherme.de/files/webcam/m1200000.jpg"
    },
    {
        "ID": 227,
        "URL": "https://www.johannesbad-medizin.com/cam1/100apano.jpg",
        "Video": false,
        "Lat": 48.348958,
        "Lon": 13.328926,
        "Name": "Bad Füssing Johannesbad",
        "Personenzahl": null,
        "Stand": null,
        "consent": false,
        "origin": "https://www.johannesbad-medizin.com/cam1/100apano.jpg"
    },
    {
        "ID": 228,
        "URL": "https://webcam.bad-neustadt-erleben.de/neslive.jpg",
        "Video": false,
        "Lat": 50.322786,
        "Lon": 10.215921,
        "Name": "Bad Neustadt Innenstadt",
        "Personenzahl": null,
        "Stand": null,
        "consent": false,
        "origin": "https://webcam.bad-neustadt-erleben.de/neslive.jpg"
    },
    {
        "ID": 229,
        "URL": "https://www.stadtplatzkamera.de/traunstein/csl-connect.jpg",
        "Video": false,
        "Lat": 47.869682,
        "Lon": 12.64802,
        "Name": "Traunstein Stadtplatz",
        "Personenzahl": null,
        "Stand": null,
        "consent": false,
        "origin": "https://www.stadtplatzkamera.de/traunstein/csl-connect.jpg"
    },
    {
        "ID": 230,
        "URL": "https://www.spreewaldwetter.de/kamera.jpg",
        "Video": false,
        "Lat": 51.86749,
        "Lon": 13.972966,
        "Name": "Lübbenau Spreewaldhafen",
        "Personenzahl": null,
        "Stand": null,
        "consent": false,
        "origin": "https://www.spreewaldwetter.de/kamera.jpg"
    },
    {
        "ID": 231,
        "URL": "https://www.freising.de/_webcam/images/_pic_wc01n.jpg",
        "Video": false,
        "Lat": 48.40093,
        "Lon": 11.743913,
        "Name": "Freising Marienplatz",
        "Personenzahl": null,
        "Stand": null,
        "consent": false,
        "origin": "https://www.freising.de/_webcam/images/_pic_wc01n.jpg"
    },
    {
        "ID": 232,
        "URL": "https://webcam.online-service.de/webcams/kf-rathaus/current.jpg",
        "Video": false,
        "Lat": 47.879891,
        "Lon": 10.622771,
        "Name": "Kaufbeuren Rathaus",
        "Personenzahl": null,
        "Stand": null,
        "consent": false,
        "origin": "https://webcam.online-service.de/webcams/kf-rathaus/current.jpg"
    },
    {
        "ID": 233,
        "URL": "https://martin-bochum.de/zeig.phtm?was=picture&bild=0&dnflag=D&rand=1596299903",
        "Video": false,
        "Lat": 51.476485,
        "Lon": 7.217519,
        "Name": "Bochum BermudEck",
        "Personenzahl": null,
        "Stand": null,
        "consent": false,
        "origin": "https://martin-bochum.de/zeig.phtm?was=picture&bild=0&dnflag=D&rand=1596299903"
    },
    {
        "ID": 234,
        "URL": "https://webcam.lutherstadt-eisleben.de/markt_waage.jpg",
        "Video": false,
        "Lat": 51.528317,
        "Lon": 11.546448,
        "Name": "Lutherstadt Eisleben Marktplatz",
        "Personenzahl": null,
        "Stand": null,
        "consent": false,
        "origin": "https://webcam.lutherstadt-eisleben.de/markt_waage.jpg"
    },
    {
        "ID": 235,
        "URL": "https://webcam2.dietfurt.de/ost.jpg",
        "Video": false,
        "Lat": 49.035318,
        "Lon": 11.587223,
        "Name": "Dietfurt Innenstadt",
        "Personenzahl": null,
        "Stand": null,
        "consent": false,
        "origin": "https://webcam2.dietfurt.de/ost.jpg"
    },
    {
        "ID": 236,
        "URL": "https://webcam.dietfurt.de/marktplatz.jpg",
        "Video": false,
        "Lat": 49.035236,
        "Lon": 11.587502,
        "Name": "Dietfurt Innenstadt",
        "Personenzahl": null,
        "Stand": null,
        "consent": false,
        "origin": "https://webcam.dietfurt.de/marktplatz.jpg"
    },
    {
        "ID": 237,
        "URL": "https://webcam.zirndorf.de/marktplatz/gross.jpg",
        "Video": false,
        "Lat": 49.441779,
        "Lon": 10.957519,
        "Name": "Zirndorf Marktplatz",
        "Personenzahl": null,
        "Stand": null,
        "consent": false,
        "origin": "https://webcam.zirndorf.de/marktplatz/gross.jpg"
    },
    {
        "ID": 238,
        "URL": "https://webcam.zirndorf.de/bibertbad-2/gross.jpg",
        "Video": false,
        "Lat": 49.435941,
        "Lon": 10.957651,
        "Name": "Zirndorf Bibertbad",
        "Personenzahl": null,
        "Stand": null,
        "consent": false,
        "origin": "https://webcam.zirndorf.de/bibertbad-2/gross.jpg"
    },
    {
        "ID": 239,
        "URL": "https://www.huefingen.de/webcam/webcam.jpg",
        "Video": false,
        "Lat": 47.923178,
        "Lon": 8.489685,
        "Name": "Hüfingen Rathausplatz",
        "Personenzahl": null,
        "Stand": null,
        "consent": false,
        "origin": "https://www.huefingen.de/webcam/webcam.jpg"
    },
    {
        "ID": 240,
        "URL": "https://goch.de/webcam/current.jpg",
        "Video": false,
        "Lat": 51.675802,
        "Lon": 6.155326,
        "Name": "Goch Zentrum",
        "Personenzahl": null,
        "Stand": null,
        "consent": false,
        "origin": "https://goch.de/webcam/current.jpg"
    },
    {
        "ID": 241,
        "URL": "https://www.hilchenbach.de/webcam/webcam/markt.jpg",
        "Video": false,
        "Lat": 50.996668,
        "Lon": 8.109149,
        "Name": "Hilchenbach Markt",
        "Personenzahl": null,
        "Stand": null,
        "consent": false,
        "origin": "https://www.hilchenbach.de/webcam/webcam/markt.jpg"
    },
    {
        "ID": 242,
        "URL": "https://www.stadt-blumberg.de/webcam/webcamPreview.php",
        "Video": false,
        "Lat": 47.837826,
        "Lon": 8.5567,
        "Name": "Blumberg Bahnhof",
        "Personenzahl": null,
        "Stand": null,
        "consent": false,
        "origin": "https://www.stadt-blumberg.de/webcam/webcamPreview.php"
    },
    {
        "ID": 243,
        "URL": "https://www.stadtwerke-guenzburg.de/cam/marktplatz.jpg",
        "Video": false,
        "Lat": 48.454784,
        "Lon": 10.274778,
        "Name": "Guenzburg Marktplatz",
        "Personenzahl": null,
        "Stand": null,
        "consent": false,
        "origin": "https://www.stadtwerke-guenzburg.de/cam/marktplatz.jpg"
    },
    {
        "ID": 244,
        "URL": "https://gdbmarkt.axiscam.net:9000/mjpg/video.mjpg",
        "Video": true,
        "Lat": 53.701448,
        "Lon": 11.118414,
        "Name": "Gadebusch Markt",
        "Personenzahl": null,
        "Stand": null,
        "consent": false,
        "origin": "https://gdbmarkt.axiscam.net:9000/mjpg/video.mjpg"
    },
    {
        "ID": 244,
        "URL": "https://213.182.159.137/webcam/Marktplatz/cam01.jpg",
        "Video": false,
        "Lat": 47.98463,
        "Lon": 8.818457,
        "Name": "Tuttlingen Marktplatz",
        "Personenzahl": null,
        "Stand": null,
        "consent": false,
        "origin": "https://213.182.159.137/webcam/Marktplatz/cam01.jpg"
    },
    {
        "ID": 245,
        "URL": "https://www.kamenz.de/webcam/webcam.jpg",
        "Video": false,
        "Lat": 51.269809,
        "Lon": 14.095459,
        "Name": "Kamenz Marktplatz",
        "Personenzahl": null,
        "Stand": null,
        "consent": false,
        "origin": "https://www.kamenz.de/webcam/webcam.jpg"
    },
    {
        "ID": 246,
        "URL": "https://www.altenburg.eu//WebCam1/axis-cgi/mjpg/video.cgi?resolution=640x480",
        "Video": true,
        "Lat": 50.985005,
        "Lon": 12.433197,
        "Name": "Altenburg Markt",
        "Personenzahl": null,
        "Stand": null,
        "consent": false,
        "origin": "https://www.altenburg.eu//WebCam1/axis-cgi/mjpg/video.cgi?resolution=640x480"
    },
    {
        "ID": 247,
        "URL": "https://www.voerde.de/stadt-voerde/webcam/marktvoerde_00001.jpg",
        "Video": false,
        "Lat": 51.597961,
        "Lon": 6.681479,
        "Name": "Voerde Marktplatz",
        "Personenzahl": null,
        "Stand": null,
        "consent": false,
        "origin": "https://www.voerde.de/stadt-voerde/webcam/marktvoerde_00001.jpg"
    },
    {
        "ID": 248,
        "URL": "https://www.bayernwebcam.de/bilder/tann.jpg",
        "Video": false,
        "Lat": 48.313918,
        "Lon": 12.88722,
        "Name": "Tann Zentrum",
        "Personenzahl": null,
        "Stand": null,
        "consent": false,
        "origin": "https://www.bayernwebcam.de/bilder/tann.jpg"
    },
    {
        "ID": 249,
        "URL": "https://www.bayernwebcam.de/bilder/traunreut1.jpg",
        "Video": false,
        "Lat": 47.963037,
        "Lon": 12.596083,
        "Name": "Traunreut Innenstadt",
        "Personenzahl": null,
        "Stand": null,
        "consent": false,
        "origin": "https://www.bayernwebcam.de/bilder/traunreut1.jpg"
    },
    {
        "ID": 250,
        "URL": "https://www.reutlingen.de/tools/showImage.php5",
        "Video": true,
        "Lat": 48.49197,
        "Lon": 9.211515,
        "Name": "Reutlingen Marktplatz",
        "Personenzahl": null,
        "Stand": null,
        "consent": false,
        "origin": "https://www.reutlingen.de/tools/showImage.php5"
    },
    {
        "ID": 251,
        "URL": "https://www.reutlingen.de/webcam/stadthalle/showImage.php5",
        "Video": false,
        "Lat": 48.491212,
        "Lon": 9.208764,
        "Name": "Reutlingen Stadthalle",
        "Personenzahl": null,
        "Stand": null,
        "consent": false,
        "origin": "https://www.reutlingen.de/webcam/stadthalle/showImage.php5"
    },
    {
        "ID": 252,
        "URL": "https://www.stadt-helmstedt.de/fileadmin/webcam/Marktblick/cam1-MB.jpg",
        "Video": false,
        "Lat": 52.227832,
        "Lon": 11.010286,
        "Name": "Helmstedt Markt",
        "Personenzahl": null,
        "Stand": null,
        "consent": false,
        "origin": "https://www.stadt-helmstedt.de/fileadmin/webcam/Marktblick/cam1-MB.jpg"
    },
    {
        "ID": 253,
        "URL": "https://www.stadt-helmstedt.de/fileadmin/webcam/Rathausblick/cam2-RB.jpg",
        "Video": false,
        "Lat": 52.227951,
        "Lon": 11.010656000000001,
        "Name": "Helmstedt Rathaus",
        "Personenzahl": null,
        "Stand": null,
        "consent": false,
        "origin": "https://www.stadt-helmstedt.de/fileadmin/webcam/Rathausblick/cam2-RB.jpg"
    },
    {
        "ID": 254,
        "URL": "https://www.gladbeck.de/webcam/rathaus.jpg",
        "Video": false,
        "Lat": 51.575646,
        "Lon": 6.980285,
        "Name": "Gladbeck Willy-Brand-Platz",
        "Personenzahl": null,
        "Stand": null,
        "consent": false,
        "origin": "https://www.gladbeck.de/webcam/rathaus.jpg"
    },
    {
        "ID": 255,
        "URL": "https://www.stadt-ahaus.de/webcam/ahaus_fussgaengerzone.jpg",
        "Video": false,
        "Lat": 52.073842,
        "Lon": 7.007598,
        "Name": "Ahaus Fussgaengerzone",
        "Personenzahl": null,
        "Stand": null,
        "consent": false,
        "origin": "https://www.stadt-ahaus.de/webcam/ahaus_fussgaengerzone.jpg"
    },
    {
        "ID": 256,
        "URL": "https://webcam-badurach.land-in-sicht.com/Marktplatz.jpg",
        "Video": false,
        "Lat": 48.493226,
        "Lon": 9.399289,
        "Name": "Bad Urach Marktplatz",
        "Personenzahl": null,
        "Stand": null,
        "consent": false,
        "origin": "https://webcam-badurach.land-in-sicht.com/Marktplatz.jpg"
    },
    {
        "ID": 257,
        "URL": "https://webcams.goslar.de/marktplatz-gmg.jpg",
        "Video": false,
        "Lat": 51.906148,
        "Lon": 10.429373,
        "Name": "Goslar Marktplatz",
        "Personenzahl": null,
        "Stand": null,
        "consent": false,
        "origin": "https://webcams.goslar.de/marktplatz-gmg.jpg"
    },
    {
        "ID": 258,
        "URL": "https://webcams.goslar.de/schuhof.jpg",
        "Video": false,
        "Lat": 51.90589,
        "Lon": 10.428139,
        "Name": "Goslar Schuhhof",
        "Personenzahl": null,
        "Stand": null,
        "consent": false,
        "origin": "https://webcams.goslar.de/schuhof.jpg"
    },
    {
        "ID": 259,
        "URL": "https://www.nordseehotel.info/webcam/webcam.jpg",
        "Video": false,
        "Lat": 54.685449,
        "Lon": 8.56895,
        "Name": "Wyk auf Foehr Seebrücke",
        "Personenzahl": null,
        "Stand": null,
        "consent": false,
        "origin": "https://www.nordseehotel.info/webcam/webcam.jpg"
    },
    {
        "ID": 260,
        "URL": "https://www.hotelzumbaer.de/cam/image.jpg",
        "Video": false,
        "Lat": 51.788677,
        "Lon": 11.141263,
        "Name": "Quedlinburg Altstadt",
        "Personenzahl": null,
        "Stand": null,
        "consent": false,
        "origin": "https://www.hotelzumbaer.de/cam/image.jpg"
    },
    {
        "ID": 261,
        "URL": "https://bad-essen.ftp.citywerk.net/kirchplatz.jpg",
        "Video": false,
        "Lat": 52.319822,
        "Lon": 8.34034,
        "Name": "Bad Essen Kirchplatz",
        "Personenzahl": null,
        "Stand": null,
        "consent": false,
        "origin": "https://bad-essen.ftp.citywerk.net/kirchplatz.jpg"
    },
    {
        "ID": 262,
        "URL": "https://player.livespotting.com/lsplayer.html?alias=a64hpuc4",
        "Video": true,
        "Lat": 48.779242,
        "Lon": 9.179206,
        "Name": "Stuttgart Schlossplatz",
        "Personenzahl": null,
        "Stand": null,
        "consent": false,
        "origin": "https://player.livespotting.com/lsplayer.html?alias=a64hpuc4"
    },
    {
        "ID": 263,
        "URL": "https://webcam.lohne.de/Innenstadt.jpg",
        "Video": false,
        "Lat": 52.66574,
        "Lon": 8.235656,
        "Name": "Lohne Innenstadt",
        "Personenzahl": null,
        "Stand": null,
        "consent": false,
        "origin": "https://webcam.lohne.de/Innenstadt.jpg"
    },
    {
        "ID": 264,
        "URL": "https://www.stadtwerke-warburg.de/webcam/pos2.jpg",
        "Video": false,
        "Lat": 51.484365,
        "Lon": 9.148865,
        "Name": "Warburg Neustadtmarktplatz",
        "Personenzahl": null,
        "Stand": null,
        "consent": false,
        "origin": "https://www.stadtwerke-warburg.de/webcam/pos2.jpg"
    },
    {
        "ID": 265,
        "URL": "https://app.cham.de/webcam/Still/063212_SNCPeriodic.jpg",
        "Video": false,
        "Lat": 49.2181,
        "Lon": 12.6659,
        "Name": "Cham Marktplatz",
        "Personenzahl": null,
        "Stand": null,
        "consent": false,
        "origin": "https://app.cham.de/webcam/Still/063212_SNCPeriodic.jpg"
    },
    {
        "ID": 266,
        "URL": "https://www.kalkar.de/webcam/194.77.238.88/web_cam.jpg",
        "Video": false,
        "Lat": 51.7391,
        "Lon": 6.291,
        "Name": "Kalkar Zentrum",
        "Personenzahl": null,
        "Stand": null,
        "consent": false,
        "origin": "https://www.kalkar.de/webcam/194.77.238.88/web_cam.jpg"
    },