[   
    {
        "ID": 5,
        "URL": "https://www.juwelier-roller.de/media/webcam/chemnitz_markt.jpg",
        "Video": false,
        "Lat": 50.832587,
        "Lon": 12.919738,
        "Name": "Chemnitz Markt",
        "Personenzahl": null,
        "Stand": null,
        "consent": true,
        "origin": "https://www.juwelier-roller.de/webcam.html"
    }, 
    {
        "ID": 13,
        "URL": "https://cdn01.koeln.de/uploads/webcam/live.jpg",
        "Video": false,
        "Lat": 50.941278,
        "Lon": 6.958281,
        "Name": "Köln Domplatte",
        "Personenzahl": null,
        "Stand": null,
        "consent": true,
        "origin": "https://www.koeln.de/koeln/die_domstadt/webcams/webcam_dom_782576.html"
    },    
    {
        "ID": 18,
        "URL": "http://109.90.6.242/record/current.jpg",
        "Video": false,
        "Lat": 52.028423,
        "Lon": 8.901522,
        "Name": "Lemgo Mittelstraße",
        "Personenzahl": null,
        "Stand": null,
        "consent": true,
        "origin": "http://109.90.6.242/record/current.jpg"
    },
    {
        "ID": 19,
        "URL": "https://www.fiwa-forum.de/webcam/fiwa-forum-cam.jpg",
        "Video": false,
        "Lat": 51.630403,
        "Lon": 13.708284,
        "Name": "Finsterwalde Marktplatz",
        "Personenzahl": null,
        "Stand": null,
        "consent": true,
        "origin": "https://www.fiwa-forum.de/app.php/webcam"
    },
    {
        "ID": 20,
        "URL": "https://rathaus-hildesheim.de/webcam/webcam.jpg",
        "Video": false,
        "Lat": 52.1527203,
        "Lon": 9.9515704,
        "Name": "Hildesheim Marktplatz",
        "Personenzahl": null,
        "Stand": null,
        "consent": true,
        "origin": "https://www.hildesheim.de/rathaus/webcams.html"
    }, 
    {
        "ID": 31,
        "URL": "https://www.theater-schwedt.de/ubs/cam/130/",
        "Video": false,
        "Lat": 53.0617394,
        "Lon": 14.2838004,
        "Name": "Schwedt Lindenallee",
        "Personenzahl": null,
        "Stand": null,
        "consent": true,
        "origin": "https://www.theater-schwedt.de/ubs/page/130/"
    },
    {
        "ID": 54,
        "URL": "https://mzcam.kunden-mediamachine.de/markt/bild.jpg",
        "Video": false,
        "Lat": 49.9986667,
        "Lon": 8.2721841,
        "Name": "Mainz Dom",
        "Personenzahl": null,
        "Stand": null,
        "consent": true,
        "origin": "https://mainz.de/tourismus/stadtportraet/webcams.php"
    },    
    {
        "ID": 79,
        "URL": "https://www.wetter-trassenheide.de/template/trassenheide/webcamstrand/webcam_strand/trassenheide_karlshagen.jpg",
        "Video": false,
        "Lat": 54.0954499,
        "Lon": 13.8809276,
        "Name": "Trassenheide Strand Richtung Karlshagen",
        "Personenzahl": null,
        "Stand": null,
        "consent": true,
        "origin": "https://www.wetter-trassenheide.de/template/trassenheide/webcamstrand/webcam_strand/index.php?path=webcam_strand"
    },
    {
        "ID": 80,
        "URL": "https://www.wetter-trassenheide.de/template/trassenheide/webcamstrand/webcam_strand/trassenheide_zinnowitz.jpg",
        "Video": false,
        "Lat": 54.0954499,
        "Lon": 13.8792296,
        "Name": "Trassenheide Strand Richtung Zinnowitz",
        "Personenzahl": null,
        "Stand": null,
        "consent": true,
        "origin": "https://www.wetter-trassenheide.de/template/trassenheide/webcamstrand/webcam_strand/index2.php?path=webcam_strand"
    },
    {
        "ID": 81,
        "URL": "https://www.wetter-trassenheide.de/template/trassenheide/webcamstrand/webcamStrandvorplatz/trassenheide2.jpg",
        "Video": false,
        "Lat": 54.0959851,
        "Lon": 13.877473,
        "Name": "Trassenheide Strandvorplatz",
        "Personenzahl": null,
        "Stand": null,
        "consent": true,
        "origin": "https://www.wetter-trassenheide.de/template/trassenheide/webcamstrand/webcamStrandvorplatz/index.php?path=webcamStrandvorplatz"
    },
    {
        "ID": 82,
        "URL": "https://www.wetter-trassenheide.de/template/trassenheide/webcamstrand/webcam_promenade/trassenheide_strandpromenade.jpg",
        "Video": false,
        "Lat": 54.0972688,
        "Lon": 13.8754649,
        "Name": "Trassenheide Abenteuerspielplatz",
        "Personenzahl": null,
        "Stand": null,
        "consent": true,
        "origin": "https://www.wetter-trassenheide.de/template/trassenheide/webcamstrand/webcam_promenade/index.php?path=webcam_promenade"
    },   
    {
        "ID": 152,
        "URL": "https://webcam.uni-hildesheim.de/webcam/snapshot/fullsize.jpg",
        "Video": false,
        "Lat": 52.133857,
        "Lon": 9.974771,
        "Name": "Hildesheim Campus der Universität",
        "Personenzahl": null,
        "Stand": null,
        "consent": true,
        "origin": "https://www.hildesheim.de/rathaus/webcams.html"
    },    
    {
        "ID": 191,
        "URL": "https://www.lemgo.de/fileadmin/image/webcam/aktuell.jpg",
        "Video": false,
        "Lat": 52.027802,
        "Lon": 8.901243,
        "Name": "Lemgo Markt",
        "Personenzahl": null,
        "Stand": null,
        "consent": false,
        "origin": "https://www.lemgo.de/fileadmin/image/webcam/aktuell.jpg"
    }    
]
