[   
    {
        "ID": 5,
        "URL": "https://www.juwelier-roller.de/media/webcam/chemnitz_markt.jpg",
        "Video": false,
        "Lat": 50.832587,
        "Lon": 12.919738,
        "Name": "Chemnitz Markt",
        "Personenzahl": null,
        "Stand": null,
        "consent": true,
        "origin": "https://www.juwelier-roller.de/webcam.html"
    },
    {
        "ID": 6,
        "URL": "https://www.celle-tourismus.de/webcam/image-640x480.jpg",
        "Video": false,
        "Lat": 52.623973,
        "Lon": 10.080568,
        "Name": "Celle Stechbahn",
        "Personenzahl": null,
        "Stand": null,
        "consent": false,
        "origin": "https://www.celle-tourismus.de/webcam/image-640x480.jpg"
    },
    {
        "ID": 13,
        "URL": "https://cdn01.koeln.de/uploads/webcam/live.jpg",
        "Video": false,
        "Lat": 50.941278,
        "Lon": 6.958281,
        "Name": "Köln Domplatte",
        "Personenzahl": null,
        "Stand": null,
        "consent": true,
        "origin": "https://www.koeln.de/koeln/die_domstadt/webcams/webcam_dom_782576.html"
    },    
    {
        "ID": 18,
        "URL": "http://109.90.6.242/record/current.jpg",
        "Video": false,
        "Lat": 52.028423,
        "Lon": 8.901522,
        "Name": "Lemgo Mittelstraße",
        "Personenzahl": null,
        "Stand": null,
        "consent": true,
        "origin": "http://109.90.6.242/record/current.jpg"
    },
    {
        "ID": 19,
        "URL": "https://www.fiwa-forum.de/webcam/fiwa-forum-cam.jpg",
        "Video": false,
        "Lat": 51.630403,
        "Lon": 13.708284,
        "Name": "Finsterwalde Marktplatz",
        "Personenzahl": null,
        "Stand": null,
        "consent": true,
        "origin": "https://www.fiwa-forum.de/app.php/webcam"
    },
    {
        "ID": 20,
        "URL": "https://rathaus-hildesheim.de/webcam/webcam.jpg",
        "Video": false,
        "Lat": 52.1527203,
        "Lon": 9.9515704,
        "Name": "Hildesheim Marktplatz",
        "Personenzahl": null,
        "Stand": null,
        "consent": true,
        "origin": "https://www.hildesheim.de/rathaus/webcams.html"
    },
    {
        "ID": 27,
        "URL": "https://www2.braunschweig.de/webcam/schloss.jpg",
        "Video": false,
        "Lat": 52.263363,
        "Lon": 10.527763,
        "Name": "Braunschweig Schloss",
        "Personenzahl": null,
        "Stand": null,
        "consent": true,
        "origin": "https://www.braunschweig.de/leben/stadtportraet/braunschweiger_ansichten/webcam/"
    },
    {
        "ID": 31,
        "URL": "https://www.theater-schwedt.de/ubs/cam/130/",
        "Video": false,
        "Lat": 53.0617394,
        "Lon": 14.2838004,
        "Name": "Schwedt Lindenallee",-
        "Personenzahl": null,
        "Stand": null,
        "consent": true,
        "origin": "https://www.theater-schwedt.de/ubs/page/130/"
    },
    {
        "ID": 54,
        "URL": "https://mzcam.kunden-mediamachine.de/markt/bild.jpg",
        "Video": false,
        "Lat": 49.9986667,
        "Lon": 8.2721841,
        "Name": "Mainz Dom",
        "Personenzahl": null,
        "Stand": null,
        "consent": true,
        "origin": "https://mainz.de/tourismus/stadtportraet/webcams.php"
    },    
    {
        "ID": 79,
        "URL": "https://www.wetter-trassenheide.de/template/trassenheide/webcamstrand/webcam_strand/trassenheide_karlshagen.jpg",
        "Video": false,
        "Lat": 54.0954499,
        "Lon": 13.8809276,
        "Name": "Trassenheide Strand Richtung Karlshagen",
        "Personenzahl": null,
        "Stand": null,
        "consent": true,
        "origin": "https://www.wetter-trassenheide.de/template/trassenheide/webcamstrand/webcam_strand/index.php?path=webcam_strand"
    },
    {
        "ID": 80,
        "URL": "https://www.wetter-trassenheide.de/template/trassenheide/webcamstrand/webcam_strand/trassenheide_zinnowitz.jpg",
        "Video": false,
        "Lat": 54.0954499,
        "Lon": 13.8792296,
        "Name": "Trassenheide Strand Richtung Zinnowitz",
        "Personenzahl": null,
        "Stand": null,
        "consent": true,
        "origin": "https://www.wetter-trassenheide.de/template/trassenheide/webcamstrand/webcam_strand/index2.php?path=webcam_strand"
    },
    {
        "ID": 81,
        "URL": "https://www.wetter-trassenheide.de/template/trassenheide/webcamstrand/webcamStrandvorplatz/trassenheide2.jpg",
        "Video": false,
        "Lat": 54.0959851,
        "Lon": 13.877473,
        "Name": "Trassenheide Strandvorplatz",
        "Personenzahl": null,
        "Stand": null,
        "consent": true,
        "origin": "https://www.wetter-trassenheide.de/template/trassenheide/webcamstrand/webcamStrandvorplatz/index.php?path=webcamStrandvorplatz"
    },
    {
        "ID": 82,
        "URL": "https://www.wetter-trassenheide.de/template/trassenheide/webcamstrand/webcam_promenade/trassenheide_strandpromenade.jpg",
        "Video": false,
        "Lat": 54.0972688,
        "Lon": 13.8754649,
        "Name": "Trassenheide Abenteuerspielplatz",
        "Personenzahl": null,
        "Stand": null,
        "consent": true,
        "origin": "https://www.wetter-trassenheide.de/template/trassenheide/webcamstrand/webcam_promenade/index.php?path=webcam_promenade"
    },   
    {
        "ID": 152,
        "URL": "https://webcam.uni-hildesheim.de/webcam/snapshot/fullsize.jpg",
        "Video": false,
        "Lat": 52.133857,
        "Lon": 9.974771,
        "Name": "Hildesheim Campus der Universität",
        "Personenzahl": null,
        "Stand": null,
        "consent": true,
        "origin": "https://www.hildesheim.de/rathaus/webcams.html"
    },
    {
        "ID": 154,
        "URL": "http://hersbruck.de/wp-content/uploads/livecam/rathaus/rathaus.jpg",
        "Video": false,
        "Lat": 49.508756,
        "Lon": 11.428925,
        "Name": "Hersbruck Oberer Markt",
        "Personenzahl": null,
        "Stand": null,
        "consent": true,
        "origin": "https://hersbruck.de/rathaus/rathaus-aktuell/livecam/"
    },
    {
        "ID": 191,
        "URL": "https://www.lemgo.de/fileadmin/image/webcam/aktuell.jpg",
        "Video": false,
        "Lat": 52.027802,
        "Lon": 8.901243,
        "Name": "Lemgo Markt",
        "Personenzahl": null,
        "Stand": null,
        "consent": false,
        "origin": "https://www.lemgo.de/fileadmin/image/webcam/aktuell.jpg"
    },
    {
        "ID": 203,
        "URL": "https://www.punktapotheke.de/webcam/webcam.jpg",
        "Video": false,
        "Lat": 52.20027,
        "Lon": 8.589227,
        "Name": "Tönnies Wellensiek-Platz",
        "Personenzahl": null,
        "Stand": null,
        "consent": false,
        "origin": "https://www.punktapotheke.de/webcam/webcam.jpg"
    },
    {
        "ID": 204,
        "URL": "https://www2.braunschweig.de/webcam/burgplatz1.jpg",
        "Video": false,
        "Lat": 52.264607,
        "Lon": 10.524012,
        "Name": "Braunschweig Burgplatz",
        "Personenzahl": null,
        "Stand": null,
        "consent": true,
        "origin": "https://www.braunschweig.de/leben/stadtportraet/braunschweiger_ansichten/webcam/"
    },
    {
        "ID": 205,
        "URL": "https://www2.braunschweig.de/webcam/turm1.jpg",
        "Video": false,
        "Lat": 52.26499,
        "Lon": 10.524652,
        "Name": "Braunschweig Vor der Burg",
        "Personenzahl": null,
        "Stand": null,
        "consent": true,
        "origin": "https://www.braunschweig.de/leben/stadtportraet/braunschweiger_ansichten/webcam/"
    },
    {
        "ID": 220,
        "URL": "https://webcam.oldsum-auf-foehr.de/oldsum_1.jpg",
        "Video": false,
        "Lat": 54.73312,
        "Lon": 8.449398,
        "Name": "Oldsum Ortskern",
        "Personenzahl": null,
        "Stand": null,
        "consent": true,
        "origin": "https://oldsum-auf-foehr.de/webcam/"
    }
]
